Longitude,Latitude,Loc_Name,Area,Country_ID,Rainfall,Temperature,Soil_Type,Presence
41.10583333,19.67222222,aldwaia,60,SA,246.3,33.71,Alluvial,0
41.12666667,19.66861111,altoaban,80,SA,95.78,25.59,Laterite,1
41.1025,19.60861111,aldwaia,60,SA,371.58,6.45,Unknown,0
41.10166667,19.66861111,altoaban,60,SA,88.43,39.68,Sandy ,1
41.07583333,19.40138889,alahsabah,130,SA,47.03,34.69,Peat,1
41.06361111,19.55083333,mkbab,130,SA,251.57,27.08,Unknown,0
40.92527778,20.17638889,alhognah,300,SA,319.05,11.7,Unknown,0
40.89638889,20.00166667,algoaa,500,SA,106.39,17.99,Alluvial,0
41.2075,18.94416667,enaekr,150,SA,307.51,25.57,Unknown,0
41.93472222,17.78555556,wadi nhab,40,SA,294.75,21.54,Loam,0
41.46805556,18.59861111,almalmat,20,SA,292.6,15.85,Sandy ,0
41.07972222,19.71833333,albdaah,100,SA,19.05,35.97,Sandy ,1
42.74888889,17.92111111,hamdah,30,SA,94.74,17.26,Peat,1
41.48944444,19.14277778,kamis harb,100,SA,160.78,20.52,Peat,0
41.29361111,19.44777778,yabs,50,SA,371.58,8.8,Unknown,0
41.10722222,19.67055556,aldawaia,140,SA,101.31,28.9,Loam,1
41.13972222,19.70111111,aldawaia,80,SA,356.56,7.77,Loam,0
41.02111111,19.69944444,albadaah,360,SA,348.18,35.55,Peat,0
40.58444444,20.15055556,algbaese,60,SA,138.4,6.48,Unknown,0
42.01888889,17.73555556,alraghiah,90,SA,324.34,28.56,Loam,1
41.36583333,19.23111111,hdab alkael,100,SA,337.4,7.15,Loam,0
40.92,19.6125,wadi dogah,280,SA,92.69,29.8,Sandy ,1
41.28944444,19.45027778,yabs,60,SA,7.34,22.92,Peat,0
41.15194444,19.40166667,nawan,50,SA,72.17,38.51,Peat,1
41.16972222,19.63166667,sharq altoaban,80,SA,211.76,8.06,Peat,0
55.57222222,23.62916667,Al Wagan,0,AE,103.26,30.34,Unknown,1
55.41666667,23.43333333,Alquo'a,0,AE,377.66,14.71,Laterite,0
55.42444444,23.80416667,AlAraad,0,AE,156.58,29.47,Sandy ,1
41.12638889,19.66888889,aldawaia,40,SA,183.86,34.3,Peat,0
41.09611111,19.68444444,aldawaia,40,SA,384.78,13.57,Sandy ,0
40.87527778,20.08888889,alhognah,40,SA,5.47,39.16,Sandy ,0
41.96083333,17.78444444,wadi nahb,80,SA,73.11,28.4,Laterite,1
41.12972222,19.65666667,aldawaia,80,SA,351.41,40.55,Peat,0
41.98611111,17.82805556,armrm,20,SA,100.45,27.3,Laterite,1
41.40388889,18.56027778,wadi mslt,60,SA,71.25,25.29,Alluvial,1
41.14611111,19.695,aldawaia,60,SA,119.41,35.06,Clay ,0
40.9025,19.74138889,hshamal om alfiah,40,SA,129.03,11.42,Sandy ,1
41.41944444,18.57222222,wadi mslt,8,SA,73.39,34.84,Loam,1
41.40194444,18.56861111,wadi mslt,50,SA,108.32,32.56,Sandy ,1
41.42666667,18.56972222,wadi mslt,4,SA,22.73,10.04,Loam,0
40.55166667,20.16083333,kabah,30,SA,316.83,5.97,Clay ,0
40.60416667,20.19861111,shamal alswaeda,10,SA,45.58,26.86,Sandy ,1
40.59833333,20.18777778,garb alswaeda,15,SA,323.44,9.54,Laterite,0
41.12277778,19.67944444,aldawaia,60,SA,123.19,38.05,Loam,1
41.17888889,19.67361111,ganob altoaban,128,SA,112.76,17.2,Sandy ,0
41.10472222,19.69361111,aldawaia,40,SA,53.25,32.85,Unknown,1
41.08138889,19.65222222,aldawaia,60,SA,276.67,21.88,Loam,0
41.76194444,17.90361111,almktoa,1,SA,132.76,37.36,Peat,0
42.46444444,17.49666667,kapt albgar,80,SA,364.96,6.37,Alluvial,0
41.96388889,17.83611111,albdwah alhraedah,20,SA,141.05,24.52,Laterite,0
41.23888889,19.35111111,alholaefah,100,SA,34.18,31.37,Sandy ,1
41.17111111,19.32916667,albeshiah,150,SA,105.87,39.71,Sandy ,1
41.19805556,19.6825,alsheb alyamani,80,SA,317.41,16.43,Clay ,0
41.17138889,19.65222222,aldawaia,60,SA,171.94,18.24,Sandy ,0
40.99305556,19.73944444,bani shehab,330,SA,28.43,37.72,Alluvial,1
41.06805556,19.2925,almfsh,80,SA,370.49,17.85,Laterite,0
41.1275,19.33611111,dar alkapt,70,SA,162.66,8.47,Alluvial,0
41.05833333,19.32166667,mahtah bahni,90,SA,284.59,18.76,Alluvial,0
41.03083333,19.41388889,alwatah,80,SA,201.07,35.04,Alluvial,0
42.4325,17.49083333,kapt albgar,50,SA,26.83,40.12,Unknown,1
42.37388889,17.425,almadinah alaqtsadia,80,SA,131.24,38.85,Clay ,0
41.10944444,19.69611111,aldawaia,60,SA,76.77,25.18,Alluvial,1
41.2125,18.97944444,alwatah,40,SA,80.7,25.1,Laterite,1
41.26055556,19.1325,raean,100,SA,59.15,34.48,Clay ,0
41.10944444,19.69611111,aldawaia,140,SA,208.78,33.36,Unknown,0
41.11861111,19.71305556,aldawaia,60,SA,101.04,20.8,Alluvial,0
41.23694444,19.27722222,alholaefah,100,SA,107.56,5.3,Loam,0
41.96388889,17.83611111,albdwah,20,SA,135.24,33.37,Clay ,0
41.24166667,19.29888889,raean,100,SA,117.63,25.89,Sandy ,0
41.11472222,19.26166667,agah,35,SA,392.99,24.08,Laterite,0
41.15361111,19.27305556,aldaablah,40,SA,198.38,22.41,Alluvial,0
41.09694444,19.45194444,alshaierah,70,SA,206.5,33.26,Sandy ,0
41.20222222,19.28722222,alholaefah,90,SA,394.26,19.93,Alluvial,0
41.41416667,19.16111111,kamis harb,40,SA,335.57,33.68,Sandy ,0
41.72638889,17.94944444,albrak,50,SA,278.07,14.92,Sandy ,0
41.74722222,17.95888889,wadi hamdah,40,SA,331.05,26.55,Unknown,0
42.48027778,17.46055556,abu alhashaf,60,SA,341.95,24.25,Laterite,0
42.4775,17.48666667,samrat algd,80,SA,328.39,21.92,Loam,0
42.41,17.64111111,wadi samrah,50,SA,258.41,22.7,Clay ,0
41.20527778,19.51861111,aldawaia,60,SA,141.66,17.18,Clay ,0
41.05472222,19.31861111,almfesh,80,SA,59.31,32.63,Sandy ,1
41.10861111,19.32861111,algarwiah,80,SA,275.76,11.21,Sandy ,0
35.83416667,20.62583333, ,200,SU,297.69,27.31,Laterite,0
35.84972222,20.75305556, ,80,SU,52.97,32.81,Peat,1
35.87666667,20.87, ,90,SU,188.54,31.19,Sandy ,0
42.76277778,28.49888889,south of goba,270,SA,340.26,6.99,Peat,0
40.96083333,26.4325,wasmah,220,SA,113.93,32.74,Unknown,1
40.94972222,26.46,NORTH,100,SA,232.98,36.38,Clay ,0
40.91638889,26.4625,SOUTH & NORTH OF WSM,160,SA,245.99,30.02,Sandy ,0
40.84722222,27.71527778,HIRAN,280,SA,248.09,16.39,Alluvial,0
41.45416667,19.09333333,shohatah,180,SA,30.1,34.45,Alluvial,1
41.2625,19.03361111,aldashesh,200,SA,169.4,17.46,Alluvial,0
41.13055556,19.67944444,aldwaia,50,SA,272.71,17.06,Unknown,0
41.18166667,19.735,bani hsahab,540,SA,15.39,37.96,Clay ,0
41.21861111,19.52722222,albanan,320,SA,10.6,32.72,Clay ,0
41.02472222,19.49527778,sahel nawan,180,SA,391.58,16.28,Laterite,0
42.34916667,17.43027778,shamal almnzalh,140,SA,103.61,10.65,Clay ,0
41.11,19.30416667,kapt lomah,80,SA,378.79,29.06,Peat,0
41.17166667,19.32833333,albaeshiah,80,SA,21.24,38.4,Loam,1
41.15138889,19.3175,sharq alqarwiah,30,SA,385.02,25.97,Laterite,0
41.155,19.30166667,albaeshiah,80,SA,154.63,29.71,Sandy ,0
41.09666667,19.70972222,albadaah,80,SA,289.3,24.83,Loam,0
40.68805556,20.23166667, ,0.001,SA,136.41,39.67,Laterite,0
40.6675,20.25166667, ,0.005,SA,290.02,35.32,Sandy ,0
41.13027778,19.65666667,aldawaia,60,SA,209.55,39.7,Alluvial,0
41.12,19.64416667,aldwaia,20,SA,139.2,40.44,Sandy ,0
41.21083333,19.51361111,aldawaia,60,SA,176.44,22.08,Peat,0
41.13055556,19.63694444,albgagaer,50,SA,60.57,38.24,Clay ,1
41.12694444,19.63805556,aldawaia,40,SA,103.49,14.75,Clay ,0
41.15166667,19.62138889,aldawaia,40,SA,55.62,38.67,Laterite,1
41.23888889,19.35111111,alholaefah,100,SA,154.27,39.25,Clay ,0
41.19972222,19.30055556,salm bin hatash,150,SA,107.39,24.38,Sandy ,1
41.12777778,19.22944444,alskaerah,120,SA,53.52,14.28,Alluvial,0
41.19972222,19.30055556,salm bin hatash,120,SA,173.35,24.75,Peat,0
41.23472222,19.19194444,alskaerah,120,SA,143.45,34.21,Clay ,0
41.34944444,19.18777778,om alslm,50,SA,85.62,37.7,Laterite,1
41.43,19.17305556,kamis harb,60,SA,263.36,28,Alluvial,0
41.40694444,19.19555556,blad harb,130,SA,291.05,16.62,Unknown,0
41.13722222,19.70111111,albadaah,60,SA,23.56,26.9,Clay ,0
41.13055556,19.71555556,aldawaia,50,SA,64.58,8.69,Unknown,0
41.09638889,19.45888889,alshaerah,70,SA,222,39.92,Alluvial,0
41.11444444,19.26222222,agah,80,SA,211.03,23.59,Alluvial,0
41.10361111,19.30666667,garb alholawfah,80,SA,213.85,24.57,Sandy ,0
41.12305556,19.34722222,almten,70,SA,182.56,35.67,Sandy ,0
41.10277778,19.32777778,algazwiah,60,SA,302.36,20.78,Clay ,0
41.23083333,19.2775,alamair,100,SA,397.84,40.02,Loam,0
41.22194444,19.08055556,al ziad,100,SA,229.46,5.2,Clay ,0
41.22888889,19.16972222,alslel,200,SA,274.07,26.02,Sandy ,0
41.13777778,19.69944444,albadaah,60,SA,104.59,27.44,Sandy ,1
40.85722222,20.08472222,wadi sial,45,SA,315.2,22.61,Sandy ,0
40.88194444,20.09722222,alngaah,15,SA,175.98,12.7,Unknown,0
40.81916667,19.76166667,algoaa,10,SA,382.52,10.59,Sandy ,0
40.88555556,19.59916667,algahdah,15,SA,307.38,5.42,Loam,0
40.92361111,19.71583333, ,40,SA,49.92,30.33,Laterite,1
40.91805556,19.72527778, ,40,SA,45.4,12.32,Sandy ,0
40.63611111,20.15388889,betraen,10,SA,355.43,18.93,Peat,0
40.84833333,20.18694444,algobaes,10,SA,115,30.16,Loam,1
41.14472222,19.29083333,sharq agah,60,SA,150.56,38.52,Peat,0
41.26361111,19.38944444,alser,40,SA,238.55,7.99,Clay ,0
41.14361111,19.68416667,aldwaia,80,SA,383.47,31.59,Sandy ,0
41.02361111,19.70694444,albadaah,80,SA,374.36,22.55,Unknown,0
41.13833333,19.66805556,sharq altoaban,30,SA,102.66,25.24,Sandy ,1
41.15166667,19.68666667,aldawaia,40,SA,257.96,25.81,Clay ,0
41.10472222,19.66694444,aldawaia,60,SA,345.34,18.77,Laterite,0
41.10222222,19.66972222,aldawaia,60,SA,267.93,35.58,Unknown,0
41.11916667,19.59027778,albgagaer,50,SA,378.91,26.84,Alluvial,0
41.18277778,19.65666667,aldawaia,20,SA,139.87,35.26,Clay ,0
42.84916667,17.43027778,alshgnah,180,SA,341.28,38.69,Laterite,0
41.17583333,19.665,aldawaia,90,SA,106.02,25.94,Sandy ,1
40.68222222,20.11861111,shamal alshaqah,40,SA,44.88,34.26,Peat,1
40.89666667,19.70166667,hafar,50,SA,379.05,13.77,Sandy ,0
40.66333333,20.26083333,aldmnah,50,SA,145.78,12.94,Unknown,0
41.1825,18.92333333,alzwahrah,120,SA,244.36,34.48,Sandy ,0
41.69777778,20.24055556,abu sraekah,80,SA,394.62,37.64,Alluvial,0
40.92083333,19.72527778,asaelah,25,SA,225.84,7.62,Alluvial,0
40.88222222,20.09805556,alnkaah,40,SA,107.1,33.92,Unknown,1
40.95583333,19.83861111,de work,60,SA,72.18,26.22,Laterite,1
36.92194444,26.58833333,alaredah,100,SA,281.24,18.22,Sandy ,0
41.385,18.55944444,wadi alhgn,10,SA,126.48,10.43,Alluvial,0
41.14138889,19.59388889,hadbat zbaed,250,SA,57.18,25.32,Loam,1
41.21277778,19.46472222,alahsbah,150,SA,358.13,20.38,Laterite,0
45.58333333,10.29111111,Farta-morohda,0,SO,74.87,33.64,Laterite,1
45.55722222,10.30777778,Beyo-Gulan,6,SO,75.01,32.41,Clay ,0
38.36166667,17.85805556, ,35,SU,155.25,24.75,Clay ,0
40.14444444,11.335,Weantuforsa,1000,ET,149.28,7.25,Peat,0
40.13444444,11.32527778, ,5,ET,15.66,15.31,Unknown,0
40.53361111,11.39277778,Leas,100,ET,152.19,29.47,Loam,0
40.53361111,11.39444444,Leas2,100,ET,5.06,36.36,Peat,0
40.2625,11.68305556,Asreged,300,ET,312.34,12.69,Peat,0
40.30555556,11.70055556,Asreged3,8,ET,393.44,40,Unknown,0
40.30333333,11.70277778,Asreged4,2,ET,234.26,33.22,Loam,0
40.36777778,11.51777778,Geregera3,10,ET,354.45,19.04,Laterite,0
40.32555556,11.70444444,Asreged5,10,ET,91.16,7.63,Sandy ,0
40.17916667,11.35527778,Samsam2,10,ET,385.91,22.45,Loam,0
40.13444444,11.32527778,Samasam,2.5,ET,74.49,7.56,Clay ,0
40.72861111,11.38305556,Leas6,5,ET,321.58,7.88,Sandy ,0
40.72944444,11.37888889,Leas5,8,ET,132.09,19.09,Laterite,0
40.11777778,11.3625,Semseme 2,4,ET,202.42,7.53,Clay ,0
40.29027778,11.65305556,Gurala 3,6,ET,287.43,36.97,Loam,0
40.41944444,11.50861111,Geregera 1,50,ET,226.54,20.13,Laterite,0
40.74638889,11.51027778,Fialo 1,12,ET,185.64,20.06,Alluvial,0
40.68611111,11.34416667,Leass 1,5,ET,105.29,38.89,Sandy ,1
40.70333333,11.355,Leass 2,25,ET,288.2,9.86,Peat,0
40.75305556,11.53611111,Leass 3,23,ET,395.08,25.24,Loam,0
40.70888889,11.39916667,Leass 4,12,ET,237.32,5.21,Unknown,0
40.74638889,11.51027778,Fialo 2,10,ET,228.34,25.88,Peat,0
40.46416667,11.49888889,Gergera-3,20,ET,328.68,16.55,Laterite,0
40.66972222,11.34361111,Woranso,1,ET,67.54,31.34,Peat,1
39.89194444,15.43638889, ,150,ER,391.15,36.85,Laterite,0
40.15777778,11.36277778,Semeseme,10,ET,246.67,31.18,Unknown,0
39.93305556,12.41055556,Yalo 2,1.5,ET,114.77,10.72,Clay ,0
39.87055556,12.39305556,Yalo 3,1.5,ET,105.05,12.72,Loam,0
41.38055556,19.13888889, ,70,SA,37.01,25.39,Alluvial,1
41.73027778,17.92972222,wadi hamdah,60,SA,370.08,12.3,Loam,0
41.28194444,18.86694444,hashemh,60,SA,354.02,13.05,Loam,0
42.2575,17.58972222, ,80,SA,272.95,30.73,Unknown,0
42.35888889,17.41666667, ,20,SA,16.4,18.8,Peat,0
39.20638889,15.8425, ,30,ER,90.36,25.64,Alluvial,1
39.16138889,15.85555556, ,20,ER,263.49,17.99,Alluvial,0
40.63527778,20.1525,alzmaliat,50,SA,179.84,24.04,Sandy ,0
42.29138889,17.64555556,mnshbah,60,SA,261.85,12.24,Sandy ,0
40.77638889,20.18444444,wadi slaq,40,SA,65.99,28.81,Laterite,1
41.99222222,17.79527778,kariat alshaaf,20,SA,398.34,8.07,Clay ,0
42.01111111,17.785,kariat alshaaf,30,SA,367.09,10.89,Peat,0
40.88861111,19.72722222, ,70,SA,372.51,20.38,Laterite,0
41.11333333,19.71694444,albadaah,100,SA,240.62,21.36,Sandy ,0
41.7025,19.93583333,albadaah,100,SA,166.74,32.26,Laterite,0
41.10222222,19.70777778,albadaah,80,SA,115.65,37.54,Unknown,1
41.05777778,19.71694444,albadaah,80,SA,94.07,14.55,Clay ,0
38.47583333,17.68805556, ,20,ER,95.12,27.33,Clay ,0
38.48472222,17.86694444, ,20,ER,328.2,23.99,Unknown,0
38.47916667,17.87444444, ,2,ER,48.55,28.58,Sandy ,1
38.51472222,17.72638889, ,20,ER,289.52,16.85,Alluvial,0
36.27416667,18.28527778, ,50,SU,200.15,31.19,Alluvial,0
37.24638889,26.00138889,algdaer alders,400,SA,389.44,36.62,Laterite,0
37.26777778,25.86861111,algdaer,400,SA,297.78,37.75,Laterite,0
37.33416667,24.80138889,alrdhah,50,SA,257.83,12.27,Alluvial,0
37.24166667,25.95194444,algdaer,80,SA,266.45,19.81,Laterite,0
37.27722222,25.90166667,om hadg,100,SA,328.13,6.55,Clay ,0
37.40388889,24.97888889,om adam,30,SA,326.38,23.35,Loam,0
37.36777778,25.12472222,smaen,50,SA,73.41,18.32,Peat,0
32.68972222,19.27277778, ,25,SU,213.25,7.26,Loam,0
32.53027778,19.06972222, ,5,SU,336.4,12.21,Sandy ,0
40.21333333,21.2725,wadi aldigah,100,SA,42.87,31.53,Loam,1
40.17888889,21.38972222,alhsasnah,170,SA,6.7,24.2,Sandy ,0
40.09138889,21.23583333,om alrakah,90,SA,390.83,7.97,Unknown,0
36.925,26.01611111,alrwaedah,300,SA,392.65,14.41,Laterite,0
38.21388889,24.15833333,om rgaebah,40,SA,132.24,23.9,Peat,0
37.245,25.95472222,wadi algdaer,40,SA,337.28,31.93,Unknown,0
41.24694444,27.02,gouna,60,SA,382.45,40.04,Unknown,0
40.735,26.03583333,wadi alromah,200,SA,342.45,34.15,Clay ,0
40.51,26.16833333,wadi alfahad,100,SA,277.74,23.23,Laterite,0
40.41277778,26.61416667,heail,100,SA,66.29,14.04,Peat,0
40.56527778,26.81388889,shar,20,SA,45.78,25.31,Peat,1
42.61638889,27.29861111,alsyaga,30,SA,364.35,9.75,Sandy ,0
40.44305556,26.02027778,aldwadam,100,SA,390.22,13.19,Alluvial,0
42.61527778,27.29583333,alseya,60,SA,278.32,37.78,Peat,0
40.47472222,26.16833333,alzwamea,80,SA,394.93,5.44,Peat,0
41.36527778,26.79638889,alwafa,75,SA,315.44,39.5,Laterite,0
42.89444444,27.37861111,nahial,70,SA,302.23,23.58,Clay ,0
41.11027778,26.11333333,deage,50,SA,397.92,14.44,Loam,0
37.41583333,25.06194444,alksarh,10,SA,37.42,33.11,Alluvial,1
40.18027778,21.38722222,alshgah,105,SA,345.89,8.95,Unknown,0
37.28472222,25.685,smen,25,SA,278.27,26.06,Laterite,0
40.285,21.64138889,alhsasnah,100,SA,318.23,28.92,Unknown,0
40.95833333,19.93194444,de work,80,SA,140.5,7.5,Alluvial,0
38.27583333,24.11888889,om rgaebah,40,SA,132.78,40.27,Alluvial,0
41.73972222,17.99,algob,20,SA,309.41,19.8,Unknown,0
41.40833333,19.10166667,kariat swaed,50,SA,111.01,35.87,Unknown,1
41.44694444,19.11972222,blad asaebah,70,SA,231.28,24.45,Loam,0
41.31888889,19.06888889,klaiah,90,SA,246.08,29.66,Alluvial,0
41.29944444,19.10222222,gabl mrshd,30,SA,151.37,28.06,Peat,0
41.0775,19.70944444,albadaah,60,SA,35.16,14.23,Clay ,0
41.07111111,19.70361111,albadaah,40,SA,147,18.07,Clay ,0
40.64416667,20.16444444,alhair,70,SA,287.61,15.68,Loam,0
42.25027778,17.88277778,algob,40,SA,254.87,6.66,Sandy ,0
41.97111111,17.80694444,alhraedah,60,SA,273.65,33.79,Alluvial,0
41.18777778,19.49111111,alshagaz,80,SA,48.68,31.02,Laterite,1
40.3525,21.46805556,aldaigah,110,SA,125.57,18.55,Peat,0
40.35472222,21.43583333,aldaigah,60,SA,62.55,32.44,Sandy ,1
42.3575,17.4175, ,40,SA,368.66,33.58,Loam,0
40.91027778,19.89416667,de work,40,SA,107.06,20.61,Laterite,0
41.20833333,18.95,abu graen,200,SA,5.57,32.53,Loam,0
38.675,24.26416667,om rgaebah,40,SA,369.36,8.72,Clay ,0
38.87944444,23.67111111,alfger,20,SA,19.86,25.72,Laterite,0
38.10055556,24.2875,abu garn,20,SA,121.65,6.06,Clay ,0
40.35388889,21.4525,aldigah,70,SA,337.19,8.51,Loam,0
40.33583333,21.47555556,aldigah,60,SA,209.63,29.75,Alluvial,0
41.08111111,19.28277778,algazwiah,160,SA,22.69,16.76,Peat,0
41.25527778,19.07333333,mrshed,100,SA,186.58,17.42,Loam,0
40.92166667,19.61611111,dogah,140,SA,278.96,28.28,Loam,0
40.67666667,20.19027778,betraen,40,SA,249.07,28.97,Sandy ,0
41.04166667,19.40083333,albadaah,40,SA,179.24,32.97,Sandy ,0
41.71,17.95777778,alhraedah,100,SA,116.29,27.39,Peat,0
41.72222222,17.93277778,wadi hamdah,300,SA,323.1,32.27,Laterite,0
40.58583333,20.23833333,barq alndoh,40,SA,349.92,22.17,Loam,0
40.62583333,20.25472222,alndoh,30,SA,124.83,7.82,Clay ,0
41.2675,19.07944444,mrshed,120,SA,197.23,34.37,Clay ,0
41.2675,19.07944444,mrshed,220,SA,350.38,26.16,Alluvial,0
41.19583333,18.94527778,abu alrkam,120,SA,248.5,34.13,Loam,0
41.83833333,18.40861111,thalotha yabah,100,SA,39.49,7.09,Unknown,0
41.50527778,18.84583333,shaea,60,SA,99.2,35.9,Sandy ,1
40.65472222,20.25416667,dabain,80,SA,7.48,26.68,Peat,0
40.75444444,20.23805556,labn,70,SA,390.93,38.25,Laterite,0
40.77083333,20.19583333,slaq,40,SA,48.11,34.35,Peat,1
40.92666667,19.72083333,arak bani shahab,80,SA,339.02,32.15,Unknown,0
40.925,19.73027778,asaelah,120,SA,295.18,9.21,Peat,0
40.97861111,19.73333333,arak bani shahab,120,SA,64.27,12.45,Clay ,0
41.74888889,17.92055556,hamdah,40,SA,239.64,37.48,Laterite,0
41.33361111,19.0725,mrshd,240,SA,161.8,21,Loam,0
41.23611111,18.95027778,algkoz/ almnksr,120,SA,181.08,18.6,Loam,0
41.24861111,19.0475,aldaashesh,100,SA,311.85,13.26,Clay ,0
40.88694444,19.59277778,dogah,120,SA,264.53,30.44,Clay ,0
41.34472222,19.0125,alkoz,40,SA,35.64,17.42,Laterite,0
41.99444444,17.77833333,alhgaenah,70,SA,270.64,6.39,Peat,0
41.99277778,17.76916667,alshaaf,80,SA,366.18,34.13,Loam,0
42.32166667,17.65222222,mnshabah,140,SA,265.61,12.26,Loam,0
42.67944444,17.78111111,alhraedah,40,SA,42.51,33.87,Peat,1
40.3575,21.45777778,aldigah,40,SA,50.22,29.47,Sandy ,1
40.35222222,21.46555556,aldeigah,50,SA,396.75,28,Unknown,0
41.40361111,18.56,wadi mslt,20,SA,394.3,37.56,Peat,0
40.8825,20.09416667,alngaah,200,SA,69.38,35.27,Laterite,1
40.86833333,20.04388889,algoaa,500,SA,280.12,26.22,Laterite,0
40.88055556,20.05777778,alhognah,100,SA,32.59,19.43,Peat,0
41.26527778,19.44527778,yabs,60,SA,37.91,36.74,Peat,1
41.00027778,19.55777778,garma,80,SA,392.98,37.5,Laterite,0
40.91222222,19.60416667,dogah,160,SA,309.27,16.08,Sandy ,0
42.07194444,17.67333333,altahliah,40,SA,222.98,31.21,Unknown,0
41.19333333,18.93277778,alkoz/ alsmrah,100,SA,27.03,35.27,Loam,1
42.67444444,17.7775,alhraedah,600,SA,295.61,22.86,Alluvial,0
40.35305556,21.41888889,alkaef,50,SA,353.49,28.94,Loam,0
42.76833333,17.74527778,kapt bin gbran,120,SA,379.29,31.51,Clay ,0
40.9875,19.55555556,grma,80,SA,197.21,35.19,Loam,0
41.27777778,19.04583333,aglan,40,SA,98.89,6.65,Unknown,0
41.25666667,19.075,mrshd,140,SA,109.33,5.5,Sandy ,0
41.36833333,18.92722222,alser,120,SA,162.43,31.7,Unknown,0
41.38444444,18.94666667,haelat almgaadah,120,SA,397.01,26.4,Sandy ,0
42.47416667,17.48638889,kapt alfalk,80,SA,336.11,15.55,Clay ,0
40.92305556,19.71222222,arak bani shahab,80,SA,359.1,15.18,Peat,0
41.12027778,19.34694444,almaten,70,SA,215.18,31.75,Sandy ,0
41.4675,18.73472222,kapt alahamrah,180,SA,38.23,33.18,Alluvial,1
41.33666667,18.93166667,thalotha yabah,80,SA,264.07,14.79,Peat,0
41.36277778,18.94,thalotha yabah,20,SA,363.23,28.54,Alluvial,0
41.40666667,18.95138889,kapt almgaadah,60,SA,333.86,6.26,Loam,0
41.16194444,18.97583333,bani sahar,60,SA,293.31,15.69,Loam,0
41.19972222,19.30055556,salm bin hatash,200,SA,390.04,22.25,Sandy ,0
41.22416667,19.2975,alamair,80,SA,295.24,32.55,Loam,0
41.36666667,18.90611111,sharq almahpt,100,SA,374.03,23.03,Loam,0
41.7175,17.93388889,alnfah,40,SA,206.97,37.42,Loam,0
40.89833333,20.08555556,alhognah,80,SA,381.09,13.82,Clay ,0
42.23777778,17.61777778, ,40,SA,207.34,37.99,Peat,0
41.35111111,18.9025,alser,140,SA,192.89,28.89,Laterite,0
41.48083333,18.74111111,kapt alahamrh,120,SA,300.34,29.19,Unknown,0
42.51305556,17.78027778,alhraedah,40,SA,129.61,15.67,Unknown,0
40.89138889,20.0975,alhognah,80,SA,45.77,26.52,Clay ,0
42.0525,17.75222222,qariat agbe,30,SA,74.63,11.01,Unknown,0
41.40083333,18.94666667,kapt almgaadah,50,SA,353.22,5.1,Unknown,0
42.30361111,17.64333333, ,30,SA,114.77,25.25,Loam,1
41.37361111,18.9225,alsr,60,SA,246.87,21.25,Unknown,0
41.39861111,18.89888889,almgawe,60,SA,88.44,21.87,Laterite,0
40.88555556,20.70194444,alhognah,20,SA,342.01,6.13,Alluvial,0
41.36916667,18.90583333,almhpat,60,SA,82.12,13.51,Laterite,0
41.90583333,18.34666667,alser,60,SA,378.91,28.43,Peat,0
41.72388889,17.93027778,wadi hamdah,50,SA,174.18,22.35,Sandy ,0
42.28305556,17.50138889, ,40,SA,235.42,23.95,Clay ,0
42.21305556,17.60388889, ,10,SA,121.95,24.33,Sandy ,0
42.30166667,17.58694444, ,60,SA,18.25,15.05,Clay ,0
41.38861111,18.94888889,alhaelah,80,SA,323.48,20.78,Unknown,0
41.36194444,18.89638889,almahbat,200,SA,39.08,6.79,Loam,0
42.37388889,17.41777778, ,80,SA,328.1,6.93,Clay ,0
42.13555556,17.68555556,alberk,20,SA,73.76,27.86,Sandy ,1
40.86333333,20.0625,goaa,25,SA,269.37,31.81,Peat,0
40.86944444,20.01444444,algoaa,15,SA,150.25,29.64,Sandy ,0
40.89638889,20.03,algoaa,60,SA,174.57,11.59,Clay ,0
41.38472222,18.92833333,alsr,60,SA,120.02,27.76,Peat,1
42.04166667,17.75166667,almozaeraah,30,SA,129.13,28.66,Clay ,0
38.49472222,24.47055556, ,65,SA,282.26,25.18,Unknown,0
38.48277778,24.53277778, ,50,SA,155.63,24.03,Sandy ,0
38.4875,24.6175, ,85,SA,329.17,26.95,Alluvial,0
38.19055556,24.18361111, ,170,SA,313.54,6.01,Clay ,0
37.20916667,25.26861111,omlg,70,SA,8.42,20.2,Unknown,0
39.56861111,21.81111111,alshamiah,100,SA,105.23,10.5,Unknown,0
39.75472222,21.67555556,aen shams,110,SA,394.77,8.06,Peat,0
39.75361111,21.81194444,aen shams,30,SA,180.44,25.13,Loam,0
39.75444444,21.67527778,aen shams,150,SA,204.21,29.95,Unknown,0
39.54444444,21.80166667,alshamiah,50,SA,301.28,21.29,Laterite,0
39.75555556,21.67388889,aen shams,20,SA,274.44,38.34,Clay ,0
41.36416667,19.02166667,almfarg,50,SA,277.1,40.35,Peat,0
41.25805556,19.06694444,mrshed,200,SA,366.61,13.43,Loam,0
42.95833333,17.81027778,wadi nhab,40,SA,397.56,38.62,Sandy ,0
40.90694444,19.74555556,om alfiah,50,SA,256.61,24.97,Peat,0
42.21222222,17.62333333,etwed,40,SA,221.86,33.33,Loam,0
40.65222222,20.19111111,betraen,30,SA,120.74,17.53,Laterite,0
40.87916667,19.735,hafar,50,SA,208.1,10.86,Loam,0
40.595,20.19611111,betraen,40,SA,396.25,9.44,Loam,0
40.75361111,20.04388889,wadi haliah,30,SA,43.55,10.03,Sandy ,0
42.99083333,17.80777778,alhraedah,60,SA,262.47,32.72,Unknown,0
40.87472222,20.07888889,algoaa,140,SA,355.36,16.62,Unknown,0
41.3375,19.20583333,om alalm,80,SA,145.51,27.7,Clay ,0
41.31777778,19.25861111,amrat,80,SA,170.91,22.25,Clay ,0
40.91055556,19.93888889,alahshaf,100,SA,25.9,28.4,Sandy ,1
41.40555556,19.18055556,mrshed,60,SA,63.82,38.71,Loam,1
42.95833333,17.81416667,wadi nahb,20,SA,207.83,26.71,Clay ,0
41.58444444,18.43222222,thaltha yabah,100,SA,255.35,17.68,Laterite,0
42.14611111,17.71861111,kapt algias,20,SA,319.99,9.73,Sandy ,0
42.02555556,17.75333333,almzaeraah,40,SA,151.59,39.53,Clay ,0
42.28527778,17.52722222,smrat algd,110,SA,78.65,19.79,Sandy ,0
42.16916667,17.75444444,kapt bin hran,150,SA,229.25,6.32,Unknown,0
42.10444444,17.71,tahliat alshkaek,70,SA,207.84,30.78,Peat,0
42.23583333,17.725,alsnaedle,100,SA,167.52,15.12,Alluvial,0
42.95333333,17.80583333,algalfgah,60,SA,227.17,36.07,Alluvial,0
41.24666667,19.06861111,mrshed,100,SA,63.3,32.71,Laterite,1
42.4775,17.48638889,kapt albgar,110,SA,176.55,38.15,Peat,0
42.48527778,17.40166667,almnzalh,130,SA,118.76,24.44,Sandy ,0
41.36416667,19.02166667,almfark,90,SA,288.71,33.13,Peat,0
41.23222222,19.07138889,mrshed,120,SA,54.05,25.57,Peat,1
39.29916667,22.22027778,ALSATI,9,SA,119.86,36.77,Clay ,0
39.18555556,22.22277778,ALGFAN,20,SA,138.35,16.77,Loam,0
39.31694444,22.21194444,ABU RUNF,15,SA,381.09,37.9,Loam,0
39.32972222,22.18111111,ALSHEB,86,SA,135.26,21.62,Clay ,0
39.18055556,22.23277778,hgkafan,10,SA,215.5,27.67,Clay ,0
39.13194444,22.21722222,mouhamad,10,SA,22.9,33.02,Alluvial,1
39.26444444,22.18638889,alsahl,10,SA,165.54,28.24,Alluvial,0
41.23444444,19.07722222,mrshed,120,SA,87.19,34.9,Sandy ,1
41.10805556,19.37055556,lwomah,80,SA,388.29,26.16,Clay ,0
41.26583333,19.3925,alser,90,SA,72.2,25.11,Sandy ,1
42.41,17.57444444,wadi smrah,130,SA,362.22,7.95,Loam,0
42.50222222,17.435,alrodah,100,SA,255.7,30.79,Clay ,0
42.67805556,17.79583333,alhraedah,60,SA,363.09,31.51,Alluvial,0
41.95111111,17.79833333,alkalfkah,40,SA,203.43,11.8,Unknown,0
41.93583333,17.77027778,alhashash,20,SA,41.76,16.4,Sandy ,0
40.91972222,19.92583333,de work,40,SA,217.17,10.55,Loam,0
40.91305556,19.91861111,alhognah,40,SA,262.58,17.97,Laterite,0
40.91472222,19.97805556,alhognah,60,SA,280.99,40.92,Sandy ,0
40.89222222,20.02305556,alhognah,60,SA,164.22,17.45,Peat,0
40.90222222,19.91694444,alakhal,40,SA,204.32,28.16,Peat,0
42.92861111,17.73,algalfagh,40,SA,270.86,20.21,Peat,0
42.92916667,17.83305556,alronah,60,SA,372.24,39.91,Loam,0
41.25638889,19.08333333,mrshed,200,SA,244.01,28.15,Sandy ,0
41.92972222,17.89527778,almaktoa,70,SA,334.13,8.52,Loam,0
41.95472222,17.80722222,alhraedah,60,SA,48.21,10.12,Peat,0
40.93111111,19.84833333,alhlf,10,SA,183.91,26.2,Laterite,0
41.22611111,18.88416667,alshgfah,80,SA,389.51,11.4,Clay ,0
41.23277778,19.10416667,al ziad,120,SA,66.89,14.35,Clay ,0
41.26527778,19.08861111,mrshed,200,SA,130.72,27.24,Sandy ,0
40.86916667,20.09166667,alhognah,30,SA,167.83,37.09,Clay ,0
41.94277778,17.77972222,alhraedah,40,SA,154.94,17.74,Unknown,0
41.74833333,17.95888889,wadi hamdah,800,SA,206.52,31.64,Laterite,0
40.905,19.74138889,om alfiah,50,SA,386.38,25.41,Loam,0
41.06777778,19.70583333,albadaah,100,SA,82.21,29.51,Laterite,1
40.87277778,20.04194444,alhognah,120,SA,375.26,39.7,Alluvial,0
41.07055556,19.70666667,albdaah,120,SA,12.22,33.61,Loam,0
41.27361111,19.06194444,mrshed,120,SA,179.6,33.34,Laterite,0
40.995,19.4775,abu awaeden,400,SA,319.19,12.93,Unknown,0
43.07888889,27.37861111,HAIL,45,SA,361.82,40.71,Clay ,0
41.18527778,27.20333333,ALMOKTALF,80,SA,29.19,26.78,Laterite,1
40.76527778,26.76527778,ROUBA ALBIKR,40,SA,370.92,13.76,Sandy ,0
42.18861111,27.94138889,WEAST OF BAKAA,40,SA,318.71,28.06,Laterite,0
40.95861111,26.43694444,SOUTH,100,SA,193.81,20.74,Loam,0
40.87444444,26.23694444,janob alsael,150,SA,314.45,34.79,Laterite,0
43.0975,27.38222222,alsaerah,30,SA,48.61,7.2,Unknown,0
42.99777778,26.8275,alslaebah,40,SA,376.43,11.16,Sandy ,0
42.63861111,27.31888889,shark alagfar,100,SA,300.13,6.26,Loam,0
40.66361111,20.19388889,betraen,40,SA,357.37,12.58,Alluvial,0
40.74888889,20.05972222,wadi haliah,150,SA,308.16,39.92,Unknown,0
41.13527778,19.64305556,aldawai,80,SA,76.55,39.51,Sandy ,1
41.21583333,19.06861111,mrshed,80,SA,260.8,26.18,Clay ,0
41.32111111,19.07444444,mrshed,220,SA,61.1,11.12,Unknown,0
41.31527778,18.8725,alnwashrah,80,SA,131.92,38.99,Sandy ,0
40.90027778,20.06277778,alraimah,60,SA,243.88,33.17,Clay ,0
40.89611111,20.05805556,alhognah,60,SA,45.97,8.08,Peat,0
38.44833333,24.17138889,araor,270,SA,119.53,14.09,Loam,0
37.34194444,25.06527778,beir salh,60,SA,61.59,23.01,Laterite,0
37.33916667,25.11194444,smnah,40,SA,250.93,26.32,Loam,0
37.20916667,25.26861111,abu dgegah,40,SA,161.75,18.01,Clay ,0
36.70638889,26.77638889,abu algzaz,200,SA,269.92,28.88,Unknown,0
37.08055556,26.02833333,almngor,250,SA,108.13,23.85,Laterite,0
37.08027778,25.50138889,mran,120,SA,394.72,5.81,Peat,0
37.03388889,25.59972222,alhmaelah,90,SA,325.36,40.57,Sandy ,0
37.39416667,24.99138889,om adam,60,SA,274.98,10.66,Clay ,0
37.26861111,25.86222222,algdaer,230,SA,159,40.81,Clay ,0
38.23527778,24.24361111,almrkiah,250,SA,37.68,30.84,Loam,1
37.98416667,24.31833333,kmal,390,SA,319.87,11.15,Alluvial,0
38.31916667,24.23888889,thma,430,SA,212.59,7.96,Alluvial,0
37.99333333,24.34416667,alabtah,117,SA,27.4,39.08,Laterite,1
37.99333333,24.34416667, ,300,SA,292.18,38.03,Alluvial,0
37.99888889,24.3375, ,200,SA,129.52,14.9,Unknown,0
37.34361111,25.09,almtaewaa,26,SA,66.67,5.72,Clay ,0
37.37722222,25.06,smnah,55,SA,111.68,7.06,Laterite,0
37.34416667,24.78777778,alrdhah,40,SA,374.63,11.89,Laterite,0
37.40388889,25.97972222,om odam,50,SA,125.96,14.28,Loam,0
37.37722222,25.05583333,om hamdah,35,SA,107.1,16.37,Clay ,0
38.17972222,24.14222222,om rgaebah,120,SA,267.17,34.55,Peat,0
37.35027778,25.09111111,almtaewe,60,SA,140.52,26.32,Sandy ,0
40.16833333,20.26638889,wadi daem,40,SA,33.28,21.96,Sandy ,0
-13.76333333,18.81083333,est el gourariya,80,MR,328.3,6.91,Unknown,0
-13.77333333,18.81111111,el gourariya,70,MR,18.58,17.4,Loam,0
-14.45666667,19.95111111,west tilliss,60,MR,42.66,9.32,Loam,0
39.12194444,22.18416667,jazyra,60,SA,277.66,12.24,Sandy ,0
39.12083333,22.23972222,thoal2,80,SA,253.08,15.64,Alluvial,0
39.13111111,22.23333333,thoal1,100,SA,311.62,26.85,Sandy ,0
39.12694444,22.22416667,thual 3,60,SA,212.27,6.9,Unknown,0
39.12861111,22.2175,thual 6,70,SA,51.73,7.29,Laterite,0
-13.77861111,18.95083333,est hawassa,50,MR,27.33,28.94,Sandy ,1
-13.72,19.22111111,legraiviyat,60,MR,147.16,34.44,Alluvial,0
-13.68444444,19.21805556,wade legreiviyate,80,MR,5.38,15.99,Sandy ,0
-13.75166667,18.97305556,Hawassal,30,MR,194.11,25.92,Loam,0
-13.81861111,19.13694444,awyeyil,50,MR,384.2,6.52,Laterite,0
-13.72805556,19.16222222,Theyha,60,MR,95.33,21,Laterite,0
-13.83472222,19.13861111,Mohameden,50,MR,161.97,19.06,Loam,0
-13.74583333,19.17083333,nord dhloue tleiha,50,MR,355.8,23.28,Unknown,0
-13.73805556,19.17055556,nord dhloue tleiha,60,MR,391.26,12.83,Peat,0
38.13555556,18.20722222,mogpan,500,SU,83.47,40.14,Sandy ,1
38.12416667,18.21222222,aydep,50,SU,89.86,21.25,Loam,0
38.24333333,18.18027778,arhait,100,SU,368.34,26.86,Laterite,0
38.16166667,18.20833333,kalfya,100,SU,385.65,16.27,Peat,0
38.16166667,18.20805556,Kalafia,100,SU,264.83,39.22,Laterite,0
38.40527778,17.97861111,Adarat,600,SU,145.03,32.2,Sandy ,0
38.24805556,18.12194444,hamalyb,100,SU,43.61,38.28,Laterite,1
38.28305556,18.175,Aggagh,500,SU,11.57,27.5,Clay ,0
38.34277778,18.14694444,adopana,100,SU,48.31,26.02,Laterite,1
38.33083333,17.92166667,oppely,200,SU,335.29,26.66,Sandy ,0
38.36888889,17.765,shabri,1000,SU,169.05,16.54,Loam,0
38.27111111,18.18027778,adopna,300,SU,180.75,12.04,Laterite,0
38.31527778,17.90916667,aitrpa-wady,600,SU,140.16,34.81,Loam,0
38.34916667,17.7725,shabbre,300,SU,244.25,20.72,Peat,0
38.26638889,18.18277778,wad wans,200,SU,20.39,28.95,Unknown,0
38.34972222,17.93305556,obely,300,SU,278.64,12.98,Laterite,0
38.26777778,18.18472222,Adobna,500,SU,165.97,36.16,Clay ,0
38.38361111,17.81777778,marmr-malait,1000,SU,190.75,7.76,Alluvial,0
38.34861111,17.87611111,south,800,SU,251.4,11.64,Laterite,0
38.39916667,17.79777778,north,300,SU,283.5,39.47,Sandy ,0
38.37666667,17.75361111,garora,900,SU,302.78,17.1,Unknown,0
38.27805556,18.17333333,Adobna,400,SU,327.49,36.58,Peat,0
38.38166667,17.82916667,marmr,300,SU,391.9,38.72,Alluvial,0
38.33277778,17.92111111,khor-itrppa,600,SU,367.55,28.74,Loam,0
38.33194444,17.91027778,red,200,SU,329.14,39.73,Peat,0
38.24,18.185,Adobna,500,SU,123.66,16.05,Unknown,0
38.37916667,17.81694444,marmr,200,SU,32.79,26.56,Peat,1
38.31277778,17.86388889,iyat,300,SU,89.01,12.2,Sandy ,0
38.26527778,18.16,adopana,200,SU,48.92,38.35,Sandy ,1
38.32444444,17.84388889,ayat,100,SU,11.41,23.47,Laterite,0
38.39722222,17.8525,oblt,700,SU,102.84,34.58,Sandy ,1
38.33111111,17.82111111,mogal,300,SU,41.47,11.62,Unknown,0
38.34527778,17.75555556,khogli,500,SU,32.38,40.3,Sandy ,1
38.42055556,17.98833333,Balatat,500,SU,118.82,33.44,Sandy ,0
38.30083333,18.16944444,Adobna,100,SU,158.22,26.74,Alluvial,0
38.33611111,18.14861111,Adobna,200,SU,45.89,35.69,Clay ,0
38.31472222,17.88611111,oply,400,SU,53.42,14.99,Sandy ,0
38.26888889,18.18583333,Adobna,100,SU,250.75,38.9,Laterite,0
-13.76055556,18.83083333,el gourariya,50,MR,345.24,32.42,Laterite,0
-13.76416667,18.81972222,el gourariya,50,MR,366.7,27.4,Sandy ,0
-13.75527778,18.82444444,est gourariya,60,MR,150.69,32.84,Alluvial,1
-13.76416667,18.8175,sud est el gourariya,60,MR,355.85,30.51,Loam,0
-13.71555556,19.25583333,kwat,30,MR,374.07,33.47,Laterite,0
-13.73138889,19.19333333,edloub etleiha,80,MR,231.84,13.48,Loam,0
37.21111111,19.84222222,Takamoy,200,SU,227.18,27.66,Laterite,0
38.96194444,16.86194444,Abdurbabu,800,ER,131.88,38.27,Alluvial,0
39.08444444,16.11833333,Sheberek,100,ER,264.27,36.03,Peat,0
38.96166667,16.79361111,Misho,600,ER,225.49,39.32,Peat,0
38.97472222,16.86611111,Abdurbabu,800,ER,83.12,25.33,Sandy ,1
38.93444444,16.84666667,Abdurbabu,800,ER,305.46,17.76,Unknown,0
39.19,16.39777778,glbub,20,ER,99.28,24.63,Loam,0
39.07416667,16.73472222,Embire,900,ER,208.49,12.68,Laterite,0
38.41361111,18.02611111,Agiytay,200,SU,180.87,6.65,Unknown,0
38.39361111,17.94916667,opeilly,200,SU,124.66,8.04,Clay ,0
38.39083333,17.96194444,Dahouka,300,SU,282.77,40.62,Peat,0
38.32305556,18.09555556,Adard,300,SU,76.11,35.65,Peat,1
38.44,18.00027778,Balatat,300,SU,260.98,30.97,Loam,0
37.60194444,18.47277778,Hmshyamyip,500,SU,48.99,26.32,Laterite,1
37.62194444,18.47555556,haj moog,600,SU,40.79,7.74,Sandy ,0
38.32777778,17.58861111, ,500,ET,183.86,16.68,Loam,0
37.55361111,18.55194444,Maaljiyd,600,SU,44.81,34.42,Sandy ,1
37.60388889,18.47222222,watan,1000,SU,158.02,9.03,Alluvial,0
38.41055556,18.06,blatat,500,SU,232.86,24.88,Clay ,0
37.37638889,18.97888889,Gaboul 5,700,SU,104.36,25.22,Peat,1
40.40277778,20.44416667,hthil,20,SA,123.48,21.12,Unknown,0
38.40555556,18.02138889,Agiytay,300,SU,220.76,39.55,Laterite,0
38.35388889,17.99944444,Gmatat,400,SU,277.55,13.27,Clay ,0
-14.41111111,19.99166667,nord west louebda,40,MR,15.56,37.06,Alluvial,0
38.40805556,17.99916667,blatat,600,SU,365.65,15.12,Clay ,0
38.33611111,18.00888889,Gmatat,300,SU,22.75,14.14,Unknown,0
38.33944444,17.92611111,obelly,100,SU,333,6.55,Alluvial,0
38.38583333,18.02972222,Agaiytay,200,SU,144.05,11.83,Peat,0
38.3625,17.79111111,maramr,300,SU,304.54,11.59,Sandy ,0
38.31083333,18.16527778,E. Adobna,100,SU,176.57,19.03,Alluvial,0
38.29055556,18.14444444,west kalfaya2,100,SU,329.79,7.53,Clay ,0
38.28194444,18.14888889,west kalafya,300,SU,22.39,30.95,Clay ,0
38.28472222,18.15472222,west kalafya,100,SU,183.68,14,Clay ,0
37.23694444,19.32694444,Hambokieb,300,SU,243.6,14.81,Sandy ,0
38.41638889,18.02138889,Blatat,400,SU,121.52,14.05,Clay ,0
38.2875,18.18083333,Adobana,400,SU,138.39,6.46,Loam,0
37.17833333,19.82944444,Takamoy,50,SU,354.87,9.62,Peat,0
38.41166667,18.00416667,Blatat,200,SU,80.53,28.35,Alluvial,1
38.3725,17.81666667,marmar,400,SU,212.94,13.21,Loam,0
38.35166667,17.98305556,Gmatat,200,SU,271.79,28.62,Clay ,0
38.40055556,17.99,Blatat,200,SU,157.44,5.72,Sandy ,0
38.98555556,16.8775,Abdurbabu,600,ER,304.61,17.13,Laterite,0
39.00194444,16.87277778,Abdurbabu,700,ER,123.95,27.41,Laterite,1
38.97472222,16.80444444,Misho,700,ER,193.92,25.93,Laterite,1
38.99611111,16.87972222,Abdurbabu,100,ER,165.03,10.7,Clay ,0
38.95861111,16.79527778,Misho,300,ER,304.54,27.66,Peat,0
38.93972222,16.84333333,Abdurbabu,800,ER,261.7,6.44,Unknown,0
38.95166667,16.77805556,Misho,400,ER,353.62,36.12,Sandy ,0
38.93027778,16.78472222,Misho,800,ER,143.46,21.59,Loam,0
39.13805556,16.39611111,glbub,40,ER,62.03,6.98,Loam,0
38.98444444,16.79861111,Misho,600,ER,342.35,36.22,Alluvial,0
37.66055556,24.40805556,Amasas,300,SA,169.4,25.12,Peat,0
39.10805556,16.13305556,shieb,500,ER,61.29,11.09,Laterite,0
39.09111111,16.11194444,sheberiq,400,ER,56.53,21.2,Alluvial,0
39.09361111,16.11388889,sheberiq,400,ER,252,20.48,Loam,0
39.09361111,16.11388889,sheberiq,500,ER,171.05,13.93,Loam,0
39.16722222,16.025,hasmt,1000,ER,164.2,30.43,Loam,0
39.16722222,16.025,hasmet,400,ER,380.43,40.31,Sandy ,0
39.05305556,16.80444444,Abuaud,800,ER,199.82,9.98,Peat,0
38.94083333,16.84972222,Abdurbabu,800,ER,156.77,8.81,Unknown,0
38.96888889,16.87777778,Abdurbabu,800,ER,309.55,5.55,Peat,0
39.03916667,16.74861111,Embire{[1]},900,ER,33.5,37.55,Laterite,1
38.97777778,16.80305556,Misho,800,ER,245.73,17.39,Alluvial,0
38.97555556,16.82277778,Misho,500,ER,250.88,16.4,Clay ,0
38.97972222,16.79944444,Misho,400,ER,299.31,32.81,Sandy ,0
39.03,16.86111111,Abdurbabu,700,ER,191.77,17.03,Sandy ,0
39.04111111,16.77194444,Embire,900,ER,13.7,13.12,Unknown,0
38.90472222,16.78833333,Misho,1000,ER,200.45,26.34,Alluvial,0
39.06277778,16.19166667,Shanfil,200,ER,352.48,30.79,Alluvial,0
39.10361111,16.11638889,sheeriq,500,ER,178.47,38.82,Sandy ,0
39.18027778,16.43027778,Gulbub,200,ER,108.2,37.02,Alluvial,1
39.13722222,16.55638889,Gulbub,800,ER,33.94,38.48,Unknown,1
39.07666667,16.73888889,Embire,1000,ER,295.37,35.79,Laterite,0
38.80916667,16.80027778,Agat,1000,ER,392.37,14.13,Alluvial,0
38.88055556,16.80666667,Agat,500,ER,160.18,37.82,Unknown,0
38.89111111,16.80944444,Agat,500,ER,265.65,24.19,Sandy ,0
38.94333333,16.79666667,Misho,600,ER,256.59,16.39,Clay ,0
41.50305556,18.82666667,alcepeth,30,SA,235.71,12.46,Peat,0
41.42,18.90666667,raobah,80,SA,313.99,27.91,Sandy ,0
39.71666667,20.89111111,alkarka,2,SA,270.05,33.06,Unknown,0
39.71638889,20.87333333,alkarka,1,SA,283.78,39.11,Laterite,0
39.09388889,16.36388889,garsa,20,ER,85.36,32.97,Alluvial,1
39.11805556,16.30055556,camshila,60,ER,310.95,22.76,Peat,0
39.10694444,16.29083333,camshilah,50,ER,144.82,21.08,Unknown,0
39.18055556,16.20305556,Adarhuma,300,ER,202.88,24.7,Laterite,0
39.08333333,16.52611111,Eimit,600,ER,98.91,13.88,Loam,0
39.07111111,16.3725,garsa,200,ER,64.9,37.65,Sandy ,1
39.06722222,16.37138889,garsa,80,ER,295.53,18.59,Clay ,0
37.66055556,24.40805556,Amasas,300,SA,251.79,38.11,Alluvial,0
39.05833333,16.23416667,Awaga,500,ER,253.89,40.93,Sandy ,0
39.05055556,16.20805556,Gubat,300,ER,98.47,29.72,Laterite,1
39.07361111,16.18916667,shanfil,400,ER,52.09,13.89,Alluvial,0
39.06972222,16.14805556,Assir,600,ER,182.65,26.19,Loam,0
39.10805556,16.17083333,Abdarhuma,400,ER,33.91,5.71,Unknown,0
39.14055556,16.18916667,Abdarhuma,300,ER,73.53,8.71,Unknown,0
39.16805556,16.25,Kubae-masradin,900,ER,334.18,36.61,Loam,0
39.04916667,16.74333333,Embire,300,ER,328.78,37.23,Unknown,0
39.03916667,16.77138889,Abuaud,800,ER,246.98,20.48,Sandy ,0
39.00555556,16.85138889,Abdurbabu,500,ER,122.64,12.99,Unknown,0
38.92138889,16.81805556,Abdurbabu,600,ER,327.6,28,Peat,0
38.93916667,16.83055556,Abdurbabu,400,ER,217.18,8.14,Sandy ,0
38.9575,16.81472222,Misho,800,ER,244.66,35.59,Laterite,0
39.10083333,16.46472222,Aribay,200,ER,39.83,22.33,Clay ,0
39.10083333,16.465,Aribay,400,ER,341.36,38.98,Peat,0
39.08083333,16.37,camshilh,500,ER,283.77,15.93,Clay ,0
39.06,16.25694444,Awaga,400,ER,357.11,7.36,Sandy ,0
39.06611111,16.74222222,Falkat-naro,600,ER,309.22,23.81,Peat,0
38.9675,16.83416667,Abdurbabu,400,ER,147.31,16.74,Loam,0
39.05305556,16.80444444,Abdurbabu,400,ER,111.77,28.56,Peat,1
39.06777778,16.30222222,kamshila,50,ER,396.44,26.57,Peat,0
39.06666667,16.29861111,kashilah,40,ER,323.61,39.47,Clay ,0
39.07638889,16.28666667,kamshilah,30,ER,328.02,34.89,Unknown,0
39.07666667,16.285,kamshilah,20,ER,252.77,18.41,Unknown,0
39.06027778,16.32333333,kamshilah,60,ER,121.14,19.95,Peat,0
39.0825,16.34972222,garsa,40,ER,333.39,13.74,Alluvial,0
39.73861111,21.67055556,aljmumAlkif,100,SA,228.43,11.37,Sandy ,0
36.9425,20.255,W. Konsarrit,700,SU,292.95,39.94,Loam,0
38.31388889,17.91,west,200,SU,342.82,39.18,Sandy ,0
38.44222222,17.99611111,balatat,200,SU,236.83,33.58,Peat,0
38.31666667,17.93805556,shoshat,200,SU,247.78,24.56,Clay ,0
38.41138889,18.00555556,Balatat,1000,SU,98.47,29.43,Clay ,0
38.36722222,17.785,moharba,200,SU,322.18,8.86,Laterite,0
38.33777778,17.90361111,itarba-old,200,SU,360.86,18.31,Peat,0
37.60027778,18.59666667,hamshyamaib,200,SU,311.57,15.27,Unknown,0
37.0275,20.23416667,K. Yoider,500,SU,298.06,26.68,Sandy ,0
37.03916667,20.26972222,W. Konsarrit,300,SU,368.88,24.2,Clay ,0
38.40638889,17.96472222,Balatat,200,SU,360.89,5.83,Laterite,0
38.3425,17.92972222,Aublai,300,SU,127.92,21.94,Unknown,0
38.34222222,17.92944444,north,300,SU,82.66,17.64,Sandy ,0
36.94944444,20.26611111,W. Konsarrit,400,SU,203.47,6.64,Peat,0
38.34222222,17.90666667,gadm,200,SU,176.28,26.86,Laterite,0
36.995,20.27722222,W. Konsarrit,300,SU,314.78,27.58,Laterite,0
38.33944444,17.91472222,north,200,SU,298.67,24.24,Clay ,0
38.31805556,17.92888889,shooshat,100,SU,159.98,9.26,Clay ,0
38.31861111,17.93638889,shooshat-north,200,SU,362.54,29.8,Laterite,0
37.00305556,20.27583333,W. Konsarrit,700,SU,272.43,7.5,Sandy ,0
38.33527778,17.92166667,opeilly,200,SU,150.5,18.82,Alluvial,0
38.33777778,17.89833333,itarpa,200,SU,165.17,40.83,Alluvial,0
38.34111111,17.88138889,gadembawa,300,SU,68.58,14.25,Sandy ,0
38.335,17.91305556,gashem,300,SU,240.35,17.71,Clay ,0
38.35333333,17.93388889,opeilly,100,SU,178.63,15.44,Sandy ,0
38.43555556,17.99833333,Balatat,400,SU,366.91,38.73,Loam,0
37.63777778,24.44138889,alhurah,100,SA,201.84,29.97,Unknown,0
37.61666667,24.42027778,om oash,100,SA,53.82,32.43,Loam,1
37.66055556,24.40666667,alhurah,100,SA,250.04,36.39,Clay ,0
37.66861111,24.41472222,om oash,100,SA,101.41,17.42,Unknown,0
39.45305556,21.84166667,alshameh,30,SA,55.78,8.96,Sandy ,0
39.57611111,21.72972222,hadaAlsham,100,SA,111.15,9.04,Laterite,0
39.58333333,21.76916667,HadaAlsham,100,SA,242.36,31.46,Alluvial,0
-13.72416667,19.23888889,legreiviyate,100,MR,337.4,29.01,Sandy ,0
-13.72555556,19.23916667,legreiviyate,70,MR,79.14,37.26,Clay ,0
-13.71527778,19.20583333,legreiviyate,50,MR,223.3,9.82,Alluvial,0
-13.73111111,19.31694444,libzeizile,50,MR,21.47,17.2,Clay ,0
-13.71611111,19.16944444,edlou etleiha,30,MR,150.08,22.32,Loam,0
-13.75388889,19.15611111,awyeyile,60,MR,101.37,14.53,Clay ,0
-13.73472222,19.20722222,edlou etleiha,20,MR,215.85,34.1,Unknown,0
-13.74222222,19.19694444,edlou etleiha,80,MR,129.88,33.88,Clay ,0
-13.71805556,19.20833333,edluob etleiha,50,MR,366.94,18.44,Clay ,0
39.065,16.77527778,Embire,900,ER,316.2,14.4,Unknown,0
39.51527778,21.84305556,Alshameh,100,SA,253.95,11.94,Unknown,0
39.60805556,21.76722222,hadaAlsham,100,SA,173.42,22.74,Clay ,0
39.61277778,21.76833333,HadaAlsham,200,SA,258.87,8.84,Sandy ,0
39.60333333,21.7725,hadaAlsham,200,SA,297.99,12.79,Peat,0
-13.705,19.255,legreiviyate,90,MR,84.01,19.88,Loam,0
-13.76333333,19.19805556,edlou etleiha,100,MR,242.31,34.48,Laterite,0
-13.73777778,19.20527778,edlou etleiha,80,MR,259.96,39.79,Unknown,0
-13.74277778,18.96888889,nord sbaiya,60,MR,250.12,23.54,Loam,0
-13.72333333,19.23694444,ligraiviyat,20,MR,325.58,32.74,Clay ,0
-13.7025,19.21083333,edlou etleiha,30,MR,32.98,13.51,Peat,0
-13.68055556,19.21972222,edlou etleiha,40,MR,130.38,20.95,Unknown,0
-13.69972222,19.21916667,edlou etleiha,90,MR,211.66,20.99,Laterite,0
-13.61861111,19.22194444,adham evernane,20,MR,34.59,6.38,Peat,0
-13.69916667,19.16805556,edlou etleiha,50,MR,196.92,8.68,Loam,0
38.58833333,17.32194444,mahmimet  chirnea,200,ER,358.08,17.65,Sandy ,0
39.05833333,16.2075,Gubat,800,ER,152.1,5.99,Sandy ,0
39.05666667,16.21916667,Shanfil,200,ER,54.28,28.84,Alluvial,1
38.99611111,16.81194444,Misho,600,ER,259.48,8.14,Loam,0
38.28305556,18.09,Adarat,200,SU,292.55,21.43,Alluvial,0
38.27777778,18.07916667,Adarat,200,SU,55.88,29.15,Clay ,0
38.25444444,18.10555556,Adart,300,SU,399.39,34.9,Sandy ,0
38.25444444,18.10583333,Adarat,300,SU,291.9,6.71,Alluvial,0
38.41333333,18.06166667,North west Agitai,200,SU,372.79,9.48,Peat,0
38.28111111,18.08111111,Adarat,200,SU,97.09,11.15,Loam,0
38.31861111,18.08444444,Adarat,100,SU,139.35,18.72,Peat,0
39.07583333,16.11527778,Abuamer,20,ER,329.64,15.31,Loam,0
39.08472222,16.11583333,Sheberek,40,ER,360.05,28.25,Loam,0
39.06222222,16.72527778,Embire,500,ER,143.28,21.71,Alluvial,0
39.10361111,16.13833333,sheberk,100,ER,57.57,11.41,Laterite,0
39.10444444,16.15222222,sheberek,100,ER,13.31,24.36,Alluvial,0
39.05583333,16.75055556,Abuaud,100,ER,93.66,35.89,Clay ,0
39.04722222,16.76083333,Abuaud,200,ER,138.07,17.8,Clay ,0
39.07527778,16.2375,Gubat,400,ER,163.41,11.32,Laterite,0
39.07583333,16.23777778,Gubat,700,ER,138.62,28.02,Sandy ,0
39.05611111,16.24305556,Awaga,500,ER,216.16,29.5,Laterite,0
39.04111111,16.73638889,Embire,500,ER,155.86,13.84,Unknown,0
39.07611111,16.38361111,glbub,600,ER,41.84,38.77,Peat,1
39.06944444,16.37416667,glbub,20,ER,360.46,20.49,Unknown,0
38.64472222,17.35111111,mulut,500,ER,392.43,32.36,Peat,0
38.30027778,18.08722222,Adart,200,SU,133.77,25.05,Alluvial,0
37.17,19.49777778,Salloum,200,SU,242.1,9.21,Laterite,0
38.44777778,17.99138889,Agitai,400,SU,139.17,35.15,Laterite,0
38.45166667,17.99777778,Agitai,1000,SU,164.37,5.55,Sandy ,0
38.385,17.77138889,khojali,800,SU,303.49,30.1,Peat,0
38.32027778,17.905,opeli-s,100,SU,45.62,18.03,Sandy ,0
38.32944444,17.90583333,itrpa-red,100,SU,341.39,18.27,Laterite,0
38.33833333,17.90277778,itrppa-est,100,SU,110.15,15.9,Alluvial,0
37.14833333,20.64388889,K. Kur,500,SU,146.69,24.35,Alluvial,0
38.335,17.90611111,opelai,100,SU,293.86,21.57,Clay ,0
38.31388889,17.91916667,shooshat,100,SU,11.2,34.42,Sandy ,0
36.80611111,21.36916667,K. Nigarob,700,SU,75.74,33.81,Peat,1
38.38694444,17.77916667,khojali,300,SU,103.6,10.37,Clay ,0
37.20027778,19.85138889,Hnoueit,80,SU,154.8,8.16,Peat,0
37.27138889,19.42527778,East Airport,70,SU,306.47,17.55,Unknown,0
38.34694444,18.03888889,agaitai-2,400,SU,243.24,18.78,Loam,0
38.36333333,18.04944444,agaitai-north,500,SU,398.2,28.7,Clay ,0
37.60222222,18.47305556,watan,300,SU,222.85,26.4,Clay ,0
37.21972222,19.35277778,Kamaweib,80,SU,62.67,32.9,Loam,1
37.26027778,19.38055556,Housheri,80,SU,326.71,33.26,Sandy ,0
37.34611111,19.03138889,Goub,1000,SU,344.06,38.65,Peat,0
37.28944444,19.2075,Handoub East,1000,SU,93.39,17.88,Laterite,0
38.36333333,18.04944444,agaitai,500,SU,352.63,5.82,Loam,0
37.26666667,19.35722222,Hoshery,80,SU,175.41,32.33,Sandy ,0
38.37861111,18.04888889,agaitai-north,300,SU,310.8,31.2,Sandy ,0
37.20833333,19.85194444,hanouieet,60,SU,274,32.67,Peat,0
37.24972222,19.17583333,Handoub west,100,SU,280.74,27.77,Unknown,0
37.27694444,19.16027778,Handub,200,SU,50.04,23.35,Unknown,0
37.23138889,19.16194444,Handoub,80,SU,209.9,9.42,Sandy ,0
36.75472222,21.33444444,K. Nigarob,500,SU,60.36,15.6,Laterite,0
36.80527778,21.37555556,K. Nigarob,100,SU,127.09,25.16,Peat,0
36.81777778,21.39444444,K. Nigarob,200,SU,87.75,33.05,Clay ,0
37.24694444,19.16916667,Handoub,200,SU,84.18,11.14,Sandy ,0
38.38083333,18.03583333,toror1,400,SU,251.27,22.52,Peat,0
37.27861111,19.16222222,Handoub,900,SU,374.32,39.03,Sandy ,0
37.24722222,19.38166667,Hamboukaieb,100,SU,299.58,10.47,Peat,0
36.77777778,21.4675,K. Di it,400,SU,76.2,7.68,Alluvial,0
38.35555556,18.00555556,towror,300,SU,167.31,23.75,Sandy ,0
38.34916667,17.94027778,agaitai,500,SU,13.54,34.59,Alluvial,0
37.345,18.90222222,Taharoi 6,500,SU,68.39,19.39,Alluvial,0
37.64333333,18.55861111,Gmagiyab,200,SU,9.84,14.82,Unknown,0
37.32416667,18.90027778,Taharoi 5,300,SU,347.02,29.03,Peat,0
37.39666667,18.80694444,Eirim 6,200,SU,166.61,5.61,Laterite,0
37.2675,19.32138889,Hambokieb,500,SU,279.4,18.89,Peat,0
38.34972222,17.99,shakat,400,SU,325.42,11.01,Sandy ,0
37.27222222,19.305,Hoshery,200,SU,395.21,14.92,Sandy ,0
37.20527778,19.85916667,Hanaeiet,30,SU,324.19,23.05,Loam,0
38.4225,18.03027778,agatai,200,SU,89.72,37.76,Unknown,1
37.36722222,18.74,Eirim 5,500,SU,297.91,13.76,Peat,0
37.22916667,19.33805556,Kamaweib,100,SU,38.1,21.92,Peat,0
37.2225,19.74611111,Arbaat,60,SU,244.61,16.77,Laterite,0
37.30583333,19.16361111,Tobin,300,SU,41.28,10.54,Sandy ,0
39.13916667,16.32361111,garsa,300,ER,239.42,32.21,Peat,0
39.13694444,16.32638889,garsa,500,ER,353.3,18.58,Unknown,0
38.64861111,17.39138889,mulut,200,ER,271.91,19.06,Peat,0
39.11722222,16.47305556,Aribay,400,ER,260.24,24.72,Laterite,0
39.09611111,16.48361111,Aribay,200,ER,309.78,11.96,Sandy ,0
39.08555556,16.11833333,sheberek,200,ER,374.52,9.09,Alluvial,0
37.66027778,24.40638889,ALHURAH,100,SA,39.81,28.07,Clay ,0
37.66861111,24.41444444,OM OASH,100,SA,136.23,27.21,Clay ,0
37.63777778,24.44111111,ALHURAH,100,SA,316.8,25.49,Clay ,0
37.61666667,24.42027778,OM OASH,100,SA,23.05,28.65,Sandy ,0
39.45305556,21.84166667,alshameh,30,SA,147.97,24.34,Sandy ,0
39.57611111,21.72972222,hadaAlsham,100,SA,357.61,12.12,Clay ,0
39.58333333,21.76916667,HadaAlsham,100,SA,342.65,6.98,Loam,0
39.51527778,21.84305556,Alshameh,100,SA,267.5,14.48,Peat,0
38.38333333,17.78416667,khogaly,100,SU,380.65,10,Unknown,0
37.02888889,20.71972222,K. Sieb,200,SU,108.24,18.43,Laterite,0
38.37194444,17.83333333,malate,100,SU,321.79,17.01,Sandy ,0
38.36305556,17.79555556,moharba,200,SU,300.15,37.33,Unknown,0
37.07305556,20.73666667,K. Handukteb,200,SU,122.22,37.25,Laterite,1
37.31194444,19.16166667,Towbain,100,SU,252.6,34.07,Peat,0
37.1575,19.49972222,Salloum,300,SU,290.16,33.84,Laterite,0
37.19722222,19.85138889,Tkamoi,50,SU,153.36,21.51,Unknown,0
37.27444444,19.37972222,Hoshery,500,SU,188.17,23.32,Clay ,0
37.19472222,19.80722222,Rabaeit,50,SU,258,27.53,Clay ,0
37.15916667,19.4925,salloum,200,SU,52.15,38.25,Peat,0
38.45555556,18.00027778,Agitai,700,SU,94.49,17.31,Alluvial,0
38.45555556,18.00027778,Agitai,700,SU,278.23,32.73,Clay ,0
38.36722222,17.77944444,west,300,SU,262.48,34.92,Unknown,0
38.41583333,17.78722222,khojali,300,SU,284.47,25.9,Sandy ,0
37.22555556,19.35888889,Kamaweib,100,SU,252.87,6.88,Sandy ,0
38.38055556,17.83166667,malait,300,SU,280.02,11.91,Clay ,0
37.28166667,19.22472222,Handoub,900,SU,222.84,12.12,Sandy ,0
39.32222222,22.21277778,MAHAD ALDIWI,5,SA,55.08,18.21,Peat,0
39.60666667,21.76555556,HadaAlsham,400,SA,311.85,15.9,Loam,0
39.50888889,21.86,alshameh,300,SA,90.74,20.95,Alluvial,0
39.65805556,20.84722222,wadi parasite,30,SA,286.92,21.27,Clay ,0
41.5125,18.89361111,rahubah,25,SA,386.64,13.38,Unknown,0
39.32,22.21472222,ALSHEB,20,SA,32.85,33.17,Loam,1
39.74888889,21.67666667,aen shams,40,SA,22.37,11.54,Unknown,0
39.50916667,21.86277778,alshamiah,200,SA,186.3,16.65,Clay ,0
39.75416667,21.67555556,aen shams,60,SA,217.12,5.61,Alluvial,0
39.67944444,21.62416667,alshamiah,150,SA,87.55,20.67,Sandy ,0
41.47166667,18.89444444,sheaa,50,SA,123.61,5.33,Unknown,0
39.50944444,21.8625,alshameh,200,SA,183.98,37.65,Clay ,0
39.57861111,21.77055556,alshamehBnmhfod,200,SA,389.71,14.93,Alluvial,0
39.17611111,22.21722222,khulias,50,SA,68.89,11.17,Sandy ,0
39.74916667,21.71555556,alkhif,200,SA,283.3,28.98,Loam,0
39.17722222,22.23166667,ALGUFAN,5,SA,44.07,33.82,Laterite,1
39.29916667,22.22027778,ALSATI,9,SA,60.87,23.66,Alluvial,0
39.18555556,22.22277778,ALGFAN,20,SA,199.68,30.5,Loam,0
39.31694444,22.21194444,ABU RUNF,15,SA,185.97,21.65,Loam,0
39.32972222,22.18111111,ALSHEB,86,SA,72.2,25.64,Loam,1
39.18055556,22.23277778,hgkafan,10,SA,180.85,29.23,Unknown,0
39.65222222,20.8425,tafil,20,SA,239.53,11.63,Clay ,0
41.55194444,18.8475,sheia,20,SA,289.39,36.06,Sandy ,0
39.13194444,22.21722222,mouhamad,10,SA,118.91,29.45,Alluvial,1
39.26444444,22.18638889,alsahl,10,SA,388,30.62,Loam,0
41.50416667,18.8275,alcebteh,20,SA,81.31,12.19,Loam,0
41.5075,18.82333333,alsabatah,40,SA,381.09,18.67,Unknown,0
40.40944444,20.45472222,tsabh,20,SA,276.23,34.54,Laterite,0
40.40638889,20.445,tsabh,20,SA,252.14,26.29,Clay ,0
39.52416667,21.85777778,alshmeh,400,SA,373.02,39.72,Clay ,0
39.52416667,21.85777778,alshameh,400,SA,307.02,25,Laterite,0
39.6025,21.76861111,HadaAlsham,200,SA,175.6,5.02,Alluvial,0
39.59805556,21.77611111,AlhadaBnmahfod,200,SA,27.87,7.69,Loam,0
39.59388889,21.77861111,alshamehBnmhfod,400,SA,137.7,21.48,Alluvial,0
39.43416667,21.87305556,alshamehAsfan,400,SA,98.53,22.91,Peat,0
39.59111111,21.78527778,alshamehh,200,SA,52.2,18.01,Unknown,0
39.43666667,21.87666667,shametAsfan,400,SA,151.04,16.68,Peat,0
39.69194444,20.83861111,alkarka,2,SA,60.98,10.72,Clay ,0
41.55166667,18.84805556,alqith,4,SA,304.18,36.78,Peat,0
39.44194444,21.92888889,fida,600,SA,164.69,6.23,Unknown,0
41.55805556,18.84388889,alsapatah,20,SA,306.31,18.95,Peat,0
39.44083333,21.88111111,alshameh,20,SA,177.43,39.73,Laterite,0
41.55305556,18.85,algaetah,40,SA,201.53,5.3,Peat,0
41.50361111,18.82666667,alsabatah,60,SA,180.66,19.9,Loam,0
39.51055556,21.8475,almketaea,200,SA,233.79,11.7,Clay ,0
39.51777778,21.84111111,alshamiah,45,SA,350.49,38.75,Clay ,0
39.70583333,20.8725,alkarka,41,SA,353.74,17.73,Alluvial,0
40.40944444,20.45388889,tsabh,15,SA,269.39,19.78,Loam,0
39.46222222,21.915,fida,500,SA,223.1,31.15,Clay ,0
39.475,21.90194444,fida,600,SA,170.62,25.13,Sandy ,0
40.40638889,20.44777778,tsabh,5,SA,163.29,31.41,Unknown,0
39.69694444,21.62222222,almkaetea,300,SA,326.37,20.35,Clay ,0
40.40888889,20.4525,tsabeh,10,SA,173.83,37.34,Peat,0
39.50888889,21.86277778,alshamiah,140,SA,97.82,21.7,Peat,0
40.41055556,20.45361111,tsabh,5,SA,254.49,29.66,Loam,0
39.475,21.90194444,faid,600,SA,345.56,19.15,Clay ,0
39.47944444,21.90166667,fida,500,SA,142.6,33.28,Peat,0
41.50583333,18.89555556,sheaa,3,SA,263.61,35.07,Unknown,0
39.3275,22.21972222,alsheb,9,SA,235.01,7.02,Loam,0
39.75222222,21.67,aen shams,50,SA,144.02,7.75,Unknown,0
41.51138889,18.90638889,sheaa,5,SA,94.15,16.42,Unknown,0
38.26361111,18.06638889,Adarat,300,SU,29.92,31.27,Unknown,1
38.37527778,17.75444444,garora,700,SU,345.4,12.62,Unknown,0
38.37777778,18.05555556,West Agitai,400,SU,31.59,6.54,Loam,0
38.35527778,17.93638889,obli,200,SU,272.66,37.7,Laterite,0
38.42111111,17.98861111,Balatat,300,SU,313.19,27.68,Alluvial,0
38.38416667,18.03388889,West Agitai,1000,SU,254.2,17.43,Loam,0
38.45416667,18.00138889,East Agitai,500,SU,394.09,14.45,Sandy ,0
38.43222222,18.03111111,East Agitai,200,SU,115.18,38.52,Alluvial,1
38.43833333,17.96861111,Balatat,400,SU,348.68,14.67,Laterite,0
38.40722222,17.99916667,Balatat,1000,SU,337.15,40.98,Clay ,0
38.35916667,17.80472222,gali,600,SU,171.06,20.38,Clay ,0
38.39194444,18.03944444,Agitai,200,SU,239.02,24.32,Loam,0
38.34666667,17.93388889,opeilly,200,SU,26.01,22.96,Alluvial,0
39.75222222,21.66583333,aen shams,50,SA,315.74,18.76,Laterite,0
37.1975,19.88361111,Gudoudeit,30,SU,242.52,6.98,Peat,0
37.38055556,18.89972222,Hilay 3,200,SU,254.46,39.72,Clay ,0
37.59305556,18.55583333,Maalijiyd,200,SU,88.22,5.75,Laterite,0
38.37194444,17.80444444,moharba,200,SU,77.27,22.43,Peat,0
36.76638889,21.35666667,K. Nigarob,200,SU,173.47,37.35,Alluvial,0
37.17972222,19.63777778,kamawieb,30,SU,195.53,25.68,Loam,0
37.22527778,19.82,Durour,60,SU,242.95,24.67,Unknown,0
38.39611111,17.87111111,gadmpawa,400,SU,33.08,8.19,Unknown,0
37.59972222,18.58833333,Grardbab,300,SU,190.25,13.43,Peat,0
37.21972222,19.17583333,Handoub,400,SU,24.22,18.48,Sandy ,0
38.36638889,17.86,Gadempour,200,SU,268.73,18.83,Loam,0
38.37111111,17.85972222,Gadempour,200,SU,260.19,8.03,Loam,0
37.37527778,18.78111111,Eirim 1,300,SU,350.08,20.03,Clay ,0
37.39472222,18.7825,Eirim 2,200,SU,114.4,27.44,Alluvial,1
38.35833333,17.77611111,mharba,500,SU,341.71,7.5,Alluvial,0
37.29722222,19.19944444,Handoub,60,SU,280.58,5.7,Peat,0
37.63916667,18.56555556,Kamagaiyb,200,SU,223.73,33.14,Alluvial,0
37.24472222,19.41833333,PortsudanAirport,500,SU,187.77,9.85,Loam,0
38.39583333,17.84916667,Meteb,500,SU,154.35,37.77,Sandy ,0
37.11388889,20.71694444,K. Sieb,100,SU,317.46,27.14,Peat,0
36.74611111,21.3225,K. Nigarob,200,SU,187.39,30.48,Laterite,0
37.30444444,18.93111111,taharoi,500,SU,70.54,28.68,Laterite,1
36.98222222,20.22388889,K. Yoider,100,SU,69.19,14.35,Clay ,0
38.34833333,17.78611111,moharbah,100,SU,280.43,34.62,Laterite,0
37.37111111,18.99138889,Gaboul,20,SU,352.71,8.19,Sandy ,0
37.38583333,18.96611111,gaboul 4,200,SU,142.03,31.14,Sandy ,0
37.39166667,18.9125,Hilay,100,SU,289.66,33.38,Alluvial,0
37.18,19.63777778,Hoshery,50,SU,394.83,28.48,Laterite,0
37.36166667,18.99027778,Gaboul,20,SU,371.78,37.38,Unknown,0
38.31861111,18.00666667, ,400,SU,158.18,9.47,Clay ,0
38.41055556,18.05972222,Abgitai,500,SU,38.52,39.58,Unknown,1
37.40055556,18.78111111,Eirim 4,300,SU,372.72,21.21,Sandy ,0
38.42472222,18.03083333,Agitai,400,SU,208.92,21.14,Peat,0
37.23611111,19.43666667,PortsudanAirport,200,SU,277.67,11.99,Unknown,0
38.40916667,17.98833333,Balatat,500,SU,368.64,9.6,Clay ,0
36.75416667,21.33944444,K. Nigarob,200,SU,77.04,8.1,Sandy ,0
37.29194444,18.91333333,Taharoi 3,200,SU,215.99,16.64,Sandy ,0
38.37111111,17.84861111,gadempoa,100,SU,65.69,7.8,Clay ,0
37.32333333,18.90833333,Taharoi 4,100,SU,69.33,38.67,Alluvial,1
38.39083333,17.85611111,gadembow,100,SU,243.26,23.73,Alluvial,0
37.22277778,19.81222222,Douror,70,SU,60.05,16.95,Alluvial,0
37.36333333,18.94027778,Gaboul 6,300,SU,266.27,23.73,Sandy ,0
37.275,19.34638889,Hoshery,200,SU,175.49,28.52,Unknown,0
37.28111111,19.13694444,W Swakin,500,SU,173.1,30.49,Laterite,0
37.35972222,18.74416667,Eifrim 3,100,SU,264.17,40.64,Alluvial,0
38.32111111,17.89555556,Gadempour,300,SU,78.6,38.44,Sandy ,1
38.32111111,17.89555556,Malait,400,SU,289.31,14.46,Loam,0
37.60194444,18.47305556,Kogriyay,200,SU,45.03,40.43,Peat,1
37.27194444,18.85555556,khor dahant,200,SU,255.34,14.59,Laterite,0
37.05416667,20.25527778,K. Yoider,200,SU,149.4,36.4,Clay ,0
37.31166667,18.95944444,tintio 2,300,SU,236.99,17.58,Clay ,0
37.31944444,18.95555556,gaboul 3,200,SU,334.76,18.91,Laterite,0
37.2225,19.42194444,PortsudanAirport,200,SU,292.78,16.6,Sandy ,0
37.35111111,18.99055556,Goup,100,SU,353.74,24.56,Sandy ,0
37.07361111,20.25861111,K. Yoider,100,SU,61.06,38.64,Clay ,1
37.04305556,20.2725,W. Konsarrit,100,SU,123.86,37.02,Sandy ,0
37.26,19.41972222,portsudanAirport,200,SU,77.14,21.51,Unknown,0
37.30944444,18.9525, ,500,SU,358.43,5.38,Peat,0
37.26,19.41944444,Handoub,100,SU,377.65,40.71,Sandy ,0
37.26638889,19.31,Hamboukaib,500,SU,110.46,26.28,Laterite,1
38.47027778,17.83805556,gadef,200,SU,373.56,38.91,Loam,0
37.18027778,19.63777778,Hoshery,50,SU,392.61,7.62,Loam,0
37.22166667,19.74694444,N-Omanaa,20,SU,32.31,33.63,Loam,1
37.18666667,19.74055556,Arbaat,60,SU,249.79,29.27,Alluvial,0
37.40583333,18.79111111,eirim,500,SU,39.72,6.48,Alluvial,0
37.36777778,18.94,gaboul,800,SU,297.71,36.76,Loam,0
37.27333333,19.3025,Hambokiab,100,SU,322.84,37.63,Unknown,0
38.3725,18.04777778,West Agitai,200,SU,149.19,32.29,Alluvial,0
38.3325,17.88833333,aitarppa,300,SU,366.95,30.77,Unknown,0
38.31638889,18.06833333,Adarat,200,SU,245.96,5.52,Sandy ,0
38.3125,17.87305556,kilo,200,SU,196.06,24.09,Sandy ,0
38.40555556,18.03111111,Agitai,300,SU,344.2,25.21,Laterite,0
38.30611111,17.85111111,aaiat,300,SU,119.6,28.29,Sandy ,1
38.34333333,17.92194444,opeilly,200,SU,44.11,9.65,Laterite,0
38.44472222,17.97805556,Balatat,600,SU,66.37,13.28,Alluvial,0
37.64666667,18.46416667,watan,300,SU,361.65,39.82,Laterite,0
38.32972222,18.07388889,Adarat,200,SU,265.86,37.6,Laterite,0
38.35833333,18.03944444,W. Agitai,100,SU,292.97,38.43,Clay ,0
38.31972222,17.89833333,aitrppa,200,SU,57.23,27.2,Laterite,1
-15.8125,17.88916667,LEMREYGHATT-Ouad Nag,20,MR,350.36,11.94,Unknown,0
-15.78722222,17.925,Lemreighatt-Ouad Nag,80,MR,88.53,5.96,Alluvial,0
-13.10027778,20.0075,ouad Ehl Heimed  Sui,10,MR,198.67,37.61,Laterite,0
-15.76083333,17.89277778,Ragbett El Agbe-Ouad,20,MR,275.14,31.02,Clay ,0
-13.10111111,20.00027778,Ouad Ehl Aheimed,20,MR,29.86,13.04,Alluvial,0
-15.70555556,17.86361111,Boughabra-Ouad Naga,20,MR,58.48,40.58,Clay ,0
-15.65805556,17.96861111,ACHOUEIR-Ouad Naga,40,MR,22.2,14.76,Unknown,0
-15.60222222,18.03416667,ELELB LAZRAG-Ouad Na,100,MR,387.26,31.84,Alluvial,0
47.42861111,13.69972222,morais,100,YE,153.37,36.56,Loam,0
48.37833333,14.15083333,alkhabt,100,YE,367.16,7.64,Peat,0
48.37666667,14.13111111,alkhabt,100,YE,287.64,8.21,Sandy ,0
42.91694444,15.86472222,Jaberi.1,50,YE,317.93,18.95,Clay ,0
-13.39694444,19.79916667,Dra Ehil Hbibe,80,MR,311.81,10.5,Laterite,0
-15.95944444,17.67083333,Hseyatt ehel Dih,30,MR,157.27,21.65,Alluvial,0
-12.66916667,19.53194444,ekdneche,40,MR,22.48,7.77,Loam,0
-12.80638889,19.46,bouaboune,100,MR,21.85,37.28,Unknown,0
-13.51472222,20.09305556,Sud loubeitine,20,MR,244.35,39.81,Loam,0
-14.53138889,19.55666667,el misca,100,MR,314.12,36.6,Clay ,0
-14.49166667,19.57722222,khatt ntemadi,50,MR,95.96,8.48,Unknown,0
-13.69277778,20.00083333,El egda,20,MR,50.46,16.32,Alluvial,0
-13.69388889,20.00166667,El agda,10,MR,155.78,7.28,Sandy ,0
-14.48166667,22.80527778,tizni oued jenna,70,MO,354.74,39.71,Alluvial,0
-14.54138889,22.58,oued lgrad,200,MO,397.1,21.78,Laterite,0
-15.06611111,22.03722222,Oued Touirga,150,MO,182.49,32.57,Laterite,0
44.76722222,13.01805556,abren,100,YE,32.23,34.95,Laterite,1
38.81222222,9.016111111,test5,100,ET,58.61,20.81,Peat,0
-13.69416667,20.0025,El agda,6,MR,62.56,32.48,Sandy ,1
-12.80333333,19.45277778,bouaboune,100,MR,96.59,26.75,Unknown,0
-12.91972222,19.42277778,Graret El abeth,100,MR,232.89,12.23,Sandy ,0
-12.80222222,19.45305556,bouaboune,100,MR,17.23,38.32,Peat,0
-13.90166667,19.72555556,Hadde el hamere,10,MR,313.75,21.21,Sandy ,0
-13.89583333,19.72527778,hadde hamera,10,MR,365.8,27.42,Unknown,0
-14.55166667,19.49361111,el hedra,100,MR,58.52,14.07,Sandy ,0
-12.88722222,19.41611111,echarim,100,MR,230.86,23.89,Unknown,0
-12.91972222,19.42277778,sour,100,MR,260.82,37.65,Clay ,0
-13.6925,20.00055556,El agda,20,MR,83.85,33.9,Sandy ,1
-14.50083333,19.50333333,el hedra,100,MR,386.97,19.24,Alluvial,0
-14.49111111,19.50027778,el hedra,100,MR,78.15,8.3,Loam,0
-14.50777778,19.5225,el hedra,90,MR,77.28,31.79,Peat,1
-13.14638889,20.07444444,Toungad-Aoujeft,20,MR,357.38,36.41,Peat,0
-15.98333333,17.66555556,Sud sigue pk 47,5,MR,208.19,14.81,Unknown,0
-13.16361111,20.10083333,Tountemdej-Aoujeft,20,MR,105.73,6.25,Peat,0
-15.98972222,17.65444444,Pk50 de Nkc,8,MR,373.66,30.23,Sandy ,0
-13.09361111,19.99361111,Adrar,20,MR,49.05,38.77,Loam,1
-13.265,19.94361111,egueile,40,MR,96.1,40.08,Laterite,1
-15.99416667,17.65666667,Pk47 de Nouakchott,20,MR,70.58,30.74,Alluvial,1
-14.15916667,20.25361111,ziratoul amar,80,MR,92.74,29.73,Loam,1
-14.16333333,20.25444444,ziratoul omar,60,MR,359.28,19.53,Unknown,0
-15.96416667,17.67777778,Hseyatt ehel dih,5,MR,119.5,7.51,Unknown,0
-14.17611111,20.25777778,ziratoul amr,100,MR,32.75,39.43,Sandy ,1
-15.9525,17.67138889,Hassi Awoinatt,10,MR,148.66,35.37,Clay ,0
-14.195,20.2525,ziratoul amar,60,MR,22.84,19.48,Peat,0
-13.10972222,20.01805556,Ouad Aoujeft-Adrar,40,MR,217.96,14.64,Clay ,0
-13.1425,20.07111111,xocob,20,MR,265.58,26.69,Sandy ,0
-15.31972222,18.46305556,traga,200,MR,128.97,17.74,Alluvial,0
-15.29416667,18.47194444,traga,200,MR,260.99,29.59,Clay ,0
-13.165,20.09055556,Toungad-Adrar,100,MR,335.89,32.94,Alluvial,0
-14.23777778,20.275,ziratoul amar,100,MR,249.76,25.7,Laterite,0
-14.23972222,20.27972222,ziratoul amar,20,MR,196.62,38.91,Unknown,0
-14.24138889,20.28166667,Ziratoul amar,10,MR,77.7,25.48,Sandy ,1
-14.24416667,20.28222222,ziratoul amar,10,MR,219.66,21.47,Peat,0
-15.95472222,17.66777778,Hassi Awoinatt,10,MR,155.74,30.33,Unknown,0
-14.23833333,20.285,ziratoul amar,50,MR,94.96,14.08,Clay ,0
-13.15027778,20.08527778,Toungad-Aoujeft,50,MR,195.47,22.69,Unknown,0
-13.40805556,19.79194444,Akravit Tenemrouret,200,MR,51.49,16.66,Alluvial,0
-14.60138889,19.40444444,el lekhlise,50,MR,23.43,36.59,Sandy ,0
-14.2375,20.28722222,ziratoul amar,40,MR,54.8,10.43,Sandy ,0
-13.315,20.13333333,Tantane-Yeghref,40,MR,393.96,37.97,Loam,0
-14.22722222,20.30777778,achariyate,100,MR,164.63,36.63,Sandy ,0
-13.17083333,20.09916667,Tountemdeje-Aoujeft,80,MR,168.58,11.99,Sandy ,0
-15.98444444,17.66305556,Pk48 Sud Sigue,10,MR,92.07,7.3,Alluvial,0
-12.92888889,19.68083333,ntergute,100,MR,214.23,30.45,Clay ,0
-13.21027778,20.09027778,Tivoujar-Aoujeft-Adr,200,MR,334.74,20.75,Loam,0
-13.29527778,19.94194444,rague,50,MR,357.2,25.46,Unknown,0
-14.23,20.31527778,akchar,50,MR,325.64,37.11,Loam,0
-15.96472222,17.65555556,Hassi Awoinatt,5,MR,332.24,12.6,Alluvial,0
-14.23777778,20.29861111,Akchar,60,MR,163.64,6.75,Sandy ,0
-13.23638889,19.92861111,tavrajete,20,MR,18.61,33.71,Peat,0
-14.23583333,20.29611111,Akchar,40,MR,85.47,28.19,Alluvial,1
-14.23694444,20.29833333,Akchar,50,MR,333.57,30.91,Laterite,0
-14.25888889,20.29888889,akchar,30,MR,95.43,21.93,Peat,0
-14.26138889,20.30194444,akchar,20,MR,85.15,6.04,Unknown,0
-13.14111111,20.07472222,Toungad-Aoujeft,60,MR,112.09,11.53,Sandy ,0
-13.20777778,19.97527778,manire,20,MR,92.08,18.74,Laterite,0
-13.08166667,19.99194444,Ouad Aoujeft-Adrar,50,MR,354.57,16.46,Laterite,0
-14.26361111,20.30166667,akchar,10,MR,107.65,7.03,Unknown,0
-15.9675,17.66527778,Hseyatt ehel dih,4,MR,380.02,6.46,Unknown,0
-14.50472222,19.54861111,khatt ntamadi,200,MR,84.55,26.06,Alluvial,1
-13.08527778,19.99777778,Ouad Aoujeft-Adrar,20,MR,318.98,10.13,Laterite,0
-13.17472222,20.10638889,Tountemdej-Aoujeft,40,MR,54.45,11.19,Peat,0
-15.99888889,17.64333333,Pk50,3,MR,13.33,17.42,Sandy ,0
-14.27166667,20.30194444,akchar,50,MR,290.07,6.8,Peat,0
-13.81361111,20.07472222,Toungad-Aoujeft,80,MR,156.6,10.04,Alluvial,0
49.00055556,16.72361111,nakhar tapuet,100,YE,247.85,28.92,Unknown,0
-13.27777778,19.89472222,toujite,40,MR,340.04,19.48,Sandy ,0
-15.88805556,17.66888889,Awoinatt,8,MR,214.6,10.58,Clay ,0
-12.7375,19.855,deaja,100,MR,296.08,8.92,Laterite,0
-13.30583333,19.91722222,tenewcherte,40,MR,288.4,5.11,Laterite,0
-12.73944444,19.85611111,deaji,200,MR,96.83,25.24,Loam,1
-14.48444444,19.51805556,el hedra,100,MR,217.2,40.03,Unknown,0
-13.89611111,19.725,hadde hamerra,20,MR,132.61,16.51,Peat,0
-14.45444444,19.59333333,el hedra,100,MR,246.95,35.82,Unknown,0
-12.62138889,19.5825,navigateur,200,MR,155.91,6.3,Loam,0
-14.49638889,19.57638889,el hedra,80,MR,342.45,32.9,Unknown,0
-13.14416667,20.07138889,Tounguad 2,60,MR,246.91,34.83,Unknown,0
-15.78944444,18.51388889,Elb Averchy Pk 55 Nk,30,MR,213.41,37.28,Loam,0
-15.81166667,18.54861111,Tarva el gibly sahel,5,MR,323.51,25,Clay ,0
-12.51694444,19.69194444,jouali,100,MR,352.55,10.01,Laterite,0
-13.6675,19.81,signal lazrak,10,MR,391.64,26,Clay ,0
-13.66527778,19.41,zmoliye,40,MR,382.67,37.6,Peat,0
-13.66305556,19.40027778,zmoliye,40,MR,232.5,30.05,Unknown,0
-13.25027778,19.53694444,Tenedayit,200,MR,386.05,30.41,Laterite,0
-13.65472222,19.40416667,zmoliye,70,MR,335.09,14.38,Loam,0
-13.25055556,19.53666667,Graret Tenedayite Le,100,MR,201.71,22.8,Unknown,0
-15.95666667,17.66916667,Hesseyatt Ehel Did,4,MR,394.66,39.71,Laterite,0
-14.58111111,19.50194444,lekhlige,60,MR,306.11,39.23,Peat,0
-16.15277778,17.21305556,Ouest Nebket El Arse,40,MR,112.73,33.47,Peat,1
-16.15111111,17.18944444,Sobe-Trarza,60,MR,352.12,14.2,Alluvial,0
-13.39694444,19.79777778,Dhra Ehel Hbibe,30,MR,27.64,23.78,Clay ,0
-13.21555556,20.08611111,AGUEILITE  LEGLEITAT,20,MR,355.53,11.91,Clay ,0
-13.71722222,19.37472222,ezmoliye,40,MR,54.46,26.3,Laterite,1
-13.37611111,20.14388889,loubeitine,2,MR,397.23,19.06,Unknown,0
-13.35416667,19.97083333,Erche teli,20,MR,226.85,32.14,Loam,0
-15.88194444,17.6625,Awoinatt,20,MR,241.64,18.89,Peat,0
-13.67555556,19.39666667,Ezmouliye,200,MR,223.3,15.66,Clay ,0
-12.38722222,19.41333333,grarettaklest,100,MR,195.51,20.27,Laterite,0
-12.62194444,19.58361111,grartntade,100,MR,71.97,29.13,Alluvial,1
-15.71611111,17.87444444,Tenevalitt-OuadNaga,20,MR,270.12,27.26,Unknown,0
-13.09861111,19.99861111,Ouad Ehl Aheimed,10,MR,71.35,40.68,Loam,0
-13.09611111,20.00222222,Ouad Ehl Aheimed,10,MR,176.26,25.28,Alluvial,0
-13.38388889,19.80305556,Lebthah Tenemrouret,40,MR,250.77,5.97,Sandy ,0
-12.59722222,19.61722222,Lebheir,100,MR,149.19,28.23,Peat,0
-12.59388889,19.60166667,Sud Lebheir,30,MR,387.85,13.74,Laterite,0
-13.39916667,19.8175,Akravit Tenemrouret,20,MR,144.65,17.87,Alluvial,0
-13.39027778,20.08666667,baddha saleh,4,MR,40.76,26.44,Loam,1
-14.59972222,19.47611111,khatt ntamadi,20,MR,60.49,31.47,Laterite,1
-13.31861111,19.59,Lemsaidi,50,MR,139.92,26.95,Alluvial,0
-15.86527778,17.85111111,Elvoree-Ouad Naga,50,MR,107.36,8.85,Loam,0
-12.6225,19.58555556,Elmalih,50,MR,165.03,9.36,Alluvial,0
-13.40416667,20.13,Gueble vouze,1,MR,296.39,18.95,Peat,0
-13.26111111,19.53083333,Graret Tenedayit,80,MR,319.15,19.28,Peat,0
-13.26277778,19.53111111,qGraret Tenedayit,20,MR,179.45,19.88,Sandy ,0
-16.00388889,17.63638889,Pk 50 de Nouakchott,20,MR,135.34,26.36,Sandy ,1
31.55444444,16.75722222,wadi gomor,400,SU,39.82,11.76,Unknown,0
31.645,16.89361111,w.umjawseer,60,SU,54.2,23.15,Alluvial,0
-14.49805556,22.73416667,oued jenna,400,MO,159.79,6.06,Laterite,0
-14.53583333,22.72888889,dar lamane,300,MO,391.63,15.03,Unknown,0
49.09722222,16.67472222,wadi dhlim,200,YE,235.88,11.96,Alluvial,0
48.99333333,16.69444444,wadi nakhr tasbuet,200,YE,66.03,28.69,Alluvial,1
48.95861111,16.60555556,wadi lldldoldohldoha,100,YE,38.33,22.18,Loam,0
48.93416667,16.59055556,wadi aldokhan,100,YE,192.38,18.4,Laterite,0
48.815,16.54861111,wadi halof,90,YE,386.97,29.06,Peat,0
48.80777778,16.54472222,wadi jba,100,YE,388.63,35.44,Sandy ,0
48.80666667,16.5425,wdijba,100,YE,304.06,21.44,Sandy ,0
48.82416667,16.51333333,wadi jebah,80,YE,175.72,18.84,Laterite,0
49.2125,16.14166667,wadi alkhon,100,YE,353.57,29.38,Loam,0
48.85361111,16.48777778,hrimah,90,YE,146.68,13.6,Alluvial,0
48.82027778,16.45583333,marafs,100,YE,235.47,25.54,Alluvial,0
48.85416667,16.49472222,alnkhalh,90,YE,200.43,15.12,Alluvial,0
42.35,17.39138889,gharb baysh alminzal,600,SA,48.7,9.29,Alluvial,0
42.35888889,17.385,ALmnzalh,200,SA,73.62,29.45,Alluvial,1
42.35111111,17.38638889,ALmnzla,400,SA,220.32,40.9,Peat,0
30.40194444,15.82972222,w.uborog,300,SU,345.92,19.85,Unknown,0
30.48416667,15.88,uboarog,400,SU,277.68,25.91,Peat,0
30.58444444,16.27666667,aldnageer,600,SU,177.32,28.55,Loam,0
-15.335,18.45027778,Agoueilil-Targue-Tza,20,MR,271.02,25.85,Peat,0
-13.66944444,19.40805556,Point 18 mission Mau,1,MA,326.83,38.73,Laterite,0
-13.67083333,19.39333333,Point 19- mission Ma,50,MA,14.44,20.89,Sandy ,0
-13.58055556,19.3825,Point 20 mission Mau,100,MA,342.7,20.49,Loam,0
-13.16722222,20.09527778,Toutemdej-Aoujeft,40,MR,366.48,11.01,Sandy ,0
-16.47277778,21.57083333,baire gandouze,30,MO,20.61,15.06,Laterite,0
-16.47555556,21.56305556,baire gandouze,20,MO,247.56,21.38,Laterite,0
-16.43555556,21.43888889,oued barwagua,100,MO,241.28,13.49,Peat,0
-16.4625,21.57333333,bir gandouz,40,MO,55.99,25.66,Peat,1
-16.33333333,21.40527778,grayare ignine,10,MO,202.5,40.1,Clay ,0
-16.47444444,21.56444444,bir gandouz,30,MO,14.73,22.39,Clay ,0
-16.47861111,21.55972222,barwagua,30,MO,228.93,32.07,Clay ,0
38.63111111,17.73305556,fegrethan,200,ER,231.2,6.95,Laterite,0
44.63333333,13.08333333,Amshibi,100,YE,114.28,33.18,Laterite,0
-13.38444444,19.51944444,Point 23 mission Mau,1,MA,149.76,18.28,Alluvial,0
-13.29888889,19.93416667,Point 27 mission Mau,1,MA,172.33,11.96,Loam,0
45.03972222,13.18722222,Alkhlwo,3,YE,117.16,36.85,Alluvial,1
45.0275,13.19638889,Alkhlow,1,YE,151.33,11.55,Laterite,0
42.64194444,10.86916667,Adelea,100,ET,308.28,27.21,Unknown,0
38.64444444,17.70944444,ambaset,200,ER,393.61,39.96,Peat,0
-16.47944444,21.55694444,birgandouze,10,MO,207.04,21.74,Alluvial,0
-16.46861111,21.54027778,oued birgndouze,50,MO,300.09,34.67,Unknown,0
38.64583333,17.74611111,anter,70,ER,288.41,30.69,Laterite,0
-16.46527778,21.48833333,est  birgandouze,20,MO,107.78,27.59,Clay ,1
-16.24638889,21.75111111,oued algritifa,10,MO,147.69,11.62,Loam,0
-16.40361111,21.50638889,karbate bouzaide,1,MO,352.33,19.39,Peat,0
-16.3075,21.43055556,sud glib hoiro,20,MO,373.35,31.79,Loam,0
-16.47833333,21.55972222,bir gandouz,80,MO,290.13,13.38,Peat,0
-16.49416667,21.39,la zoune militaires,80,MO,371.04,36.95,Sandy ,0
-16.3675,21.3925,grayare ignine,20,MO,22.62,10.26,Peat,0
44.8,16.05,Alraod,100,YE,302.87,27.51,Sandy ,0
-15.08638889,21.93833333,Glibate Tlayha,1,MO,276.08,34.84,Laterite,0
-14.60777778,22.645,Oued Jenna,0.2,MO,134.78,20.4,Clay ,0
-15.14138889,21.71055556,Mdinat Hbada,0.1,MO,124.82,11.46,Peat,0
-14.78055556,22.65555556,Boulaoutade,0.1,MO,92.29,23.57,Peat,0
-14.45972222,22.57027778,Laglate,0.1,MO,204.77,13.84,Laterite,0
-14.66611111,22.75583333,Jmaaiya,0.1,MO,377.98,24.45,Sandy ,0
-14.6325,22.67472222,Oued Lagrade,0.1,MO,31.27,15.63,Clay ,0
-14.64805556,22.6575,Oued Lagrade,1,MO,83.86,12.41,Sandy ,0
-14.77277778,22.55361111,Lahricha,0.1,MO,379.52,24.06,Sandy ,0
-14.49722222,22.56138889,w oued lgrad,100,MO,5.98,32.14,Alluvial,0
-14.72,22.63388889,boulaoitade,100,MO,367.24,5.5,Sandy ,0
-14.49277778,22.67972222,oued jenna,80,MO,55.15,14.67,Loam,0
-14.49333333,22.73805556,N oued jenna,100,MO,227.18,30.85,Sandy ,0
-14.60611111,19.40611111,lekhlige,300,MR,175.85,35.16,Unknown,0
-13.21972222,19.97277778,Wdeye O Med /Twerg,20,MR,275.98,40.95,Peat,0
-13.18388889,19.98555556,Wdeye O Med /Twerg,5,MR,205.88,29.86,Peat,0
-13.41361111,19.94166667,Erche Teli,10,MR,128.98,33.74,Alluvial,0
-15.63916667,18.99361111,ACHOUER-Ouad Naga,100,MR,351.18,27.14,Loam,0
42.99277778,10.57555556,saawer2,10,SO,142.56,10.24,Alluvial,0
43.15916667,10.61833333,casguudley,400,SO,109.31,10.8,Peat,0
48.82555556,16.45972222,algdrah,100,YE,163.54,26.77,Unknown,0
48.85694444,16.48777778,alnkhlh,100,YE,363.76,9.6,Loam,0
49.27777778,16.43944444,wadi washah,100,YE,228.03,39.59,Loam,0
-13.21361111,20.08805556,Point 37 mission Mau,1,MA,12.26,28.67,Clay ,0
-13.21888889,20.08138889,Point 37 mission Mau,1,MA,393.13,17.45,Clay ,0
-13.22305556,20.07416667,Point 36 misson Mau,1,MA,90.15,10.15,Sandy ,0
-13.225,20.06916667,Point 35 mission Mau,1,MA,241.7,27.01,Unknown,0
-13.23333333,20.05222222,Point  34 mission Ma,2,MA,30.8,25.29,Clay ,0
-13.23444444,20.05083333,Point 33 mission Mau,2,MA,393,5.09,Clay ,0
-13.39416667,19.79472222,Point 26 mission Mau,1,MA,143.41,28.73,Sandy ,0
-13.39388889,19.795,Point 28 mission Mau,50,MA,58.18,31.44,Loam,1
-14.61361111,19.41027778,CLCPRO2,6,MA,50.42,35.72,Unknown,1
-14.62055556,19.45083333,clcpro2,2,MA,115.4,22.68,Loam,0
48.84055556,16.50916667,wadi um almeleh,100,YE,318.28,32.22,Peat,0
45.43333333,13.25,Salaa,100,YE,175.12,23.14,Sandy ,0
49.05583333,16.58972222,wafdi alelnbah,100,YE,154.54,5.17,Loam,0
46.4,16.26666667,Duibi,100,YE,335.69,28.46,Sandy ,0
45.71666667,14.78333333,Byhan,100,YE,99.45,17.55,Unknown,0
-16.22472222,21.70583333,oued archane,4,MO,167.85,39.73,Peat,0
-16.27416667,22.11472222,tagnadazte,60,MO,111.09,7.99,Loam,0
-16.26638889,22.065,tagnadazte,30,MO,349.91,12.47,Clay ,0
-16.10083333,21.85888889,oued lgritifa,80,MO,87.4,29.91,Peat,1
-16.20888889,21.75138889,oued el gratifa,100,MO,94.89,19.58,Peat,0
-16.31,21.99111111,hafrate el aagaya,5,MO,249.35,40.01,Peat,0
38.63111111,17.73305556,anter,200,ER,265.44,32.2,Laterite,0
-16.125,21.83333333,oued elgritifa,30,MO,344.26,29.42,Unknown,0
-16.45333333,21.48666667,oued mdibir,50,MO,323.91,30.51,Unknown,0
-16.46222222,21.48722222,sud est birgandouze,50,MO,176.66,9.74,Alluvial,0
-16.26638889,22.06444444,tagnadazte,60,MO,100.27,26.93,Unknown,1
-16.18722222,21.53111111,oued mdibir,40,MO,80.65,7.61,Sandy ,0
-16.205,21.525,oued mdibir,60,MO,284.8,32.03,Peat,0
-16.25194444,21.46222222,laariche,20,MO,123.62,31.32,Alluvial,1
-14.37583333,19.42638889,Agoueidim,10,MR,124.97,16.35,Clay ,0
-16.20861111,21.5225,oued mdibir,20,MO,90.88,21.4,Sandy ,0
-13.01638889,20.04166667,Emezguy,100,MR,49.6,22.84,Alluvial,0
-13.29694444,19.93361111,elbe meiyahe,10,MR,226.61,5.15,Peat,0
-13.2975,19.93416667,isbe cheikh,20,MR,281.17,36.28,Laterite,0
-15.95277778,17.66944444,Hseyatt ehel dih,6,MR,11.16,11.85,Sandy ,0
-15.96194444,17.67277778,Hseyatt hel dih,4,MR,397.73,36.29,Laterite,0
-13.29972222,19.93305556,rague,30,MR,183.06,25.81,Peat,0
-13.30194444,19.935,rague,30,MR,164.93,32.57,Unknown,0
-13.29583333,19.95916667,ligleibe,30,MR,69.55,36.5,Alluvial,1
-13.29694444,19.95638889,ligleibe,30,MR,146.97,26.65,Unknown,0
-13.38444444,19.79972222,Dra Ehil Hbibe,100,MR,80.18,12.99,Clay ,0
-13.06638889,20.06444444,Lekhneigue,70,MR,237.31,17.7,Unknown,0
-13.17,20.09944444,Tounguad,50,MR,28.01,10.74,Clay ,0
-13.18805556,20.07083333,environ tivoujare,20,MR,389.47,33.63,Sandy ,0
-13.89333333,19.72722222,hadde hamerra,10,MR,142.3,39,Clay ,0
-13.17805556,20.05777778,environ tivoujar,20,MR,254.43,25.26,Alluvial,0
-13.19138889,19.98361111,nord wet elgara ezar,50,MR,396.76,38.52,Loam,0
-13.29333333,19.96138889,ligleibe,30,MR,196.26,40.98,Peat,0
31.65861111,16.87861111,algeea umjawaseer,300,SU,361.14,29.49,Sandy ,0
30.37027778,15.88027778,n kreeb snayah,100,SU,9.42,13.05,Peat,0
30.37027778,15.88,north kreeb sanayha,100,SU,218.47,26.25,Unknown,0
-12.70888889,19.7375,est tenoimen,10,MR,189.31,12.55,Loam,0
-13.23833333,19.95694444,agweile,20,MR,52.96,36.18,Sandy ,1
-12.51694444,19.6925,joili maham,20,MR,352.3,21.28,Peat,0
-12.63444444,19.69638889,ennter lebeheir teno,20,MR,164.39,21.65,Laterite,0
-12.66277778,19.6875,est tenoimene,10,MR,395.19,37.8,Alluvial,0
-12.66861111,19.68972222,tnoimene,20,MR,260.84,33.56,Alluvial,0
30.37916667,15.83027778,west abo urooq 2,200,SU,282.91,14.21,Laterite,0
30.40611111,15.84305556,west abo urooq,400,SU,192.68,38.6,Alluvial,0
30.46416667,15.88194444,abo urooq,300,SU,326.95,18.41,Unknown,0
30.34361111,15.82944444,kreeb snaiah,300,SU,352.42,31.72,Loam,0
31.66333333,16.87888889,beer alsheehk,500,SU,143.55,12.89,Unknown,0
31.59833333,16.85694444,regrega,400,SU,100.74,7.44,Peat,0
-13.14666667,20.02944444,W Twerge,40,MR,358.6,40.05,Alluvial,0
-13.15111111,20.01722222,W Twerge,10,MR,340.47,33.75,Laterite,0
-13.18583333,20.02583333,NW Twerga,100,MR,174.19,37.8,Unknown,0
-13.16805556,20.03527778,NW Twerga,100,MR,163.26,26.98,Peat,0
-13.14777778,20.02916667,Twarga,20,MR,296,7.07,Peat,0
-13.1225,20.00166667,Twarga,60,MR,120.96,39.33,Clay ,0
-13.15166667,20.025,Twarga/W Twerga,40,MR,394.99,9.05,Peat,0
-13.145,20.02833333,Twarga/W Twerga,100,MR,65.34,40.95,Unknown,1
-13.15472222,20.02361111,W twerge,30,MR,369.92,21.69,Loam,0
-13.14388889,20.01361111,W twerge,40,MR,281.34,20.73,Peat,0
-13.21083333,20.0225,SW tivoujart/Zani,30,MR,151.44,29.87,Sandy ,0
-13.18444444,20.06638889,SW Tivoujart/Zani,60,MR,158.33,35.2,Loam,0
-13.39611111,19.79444444,Dra Ehel Ehbile,80,MR,377.75,18.46,Laterite,0
-13.39416667,19.79972222,Dra Ehel Hbibe,100,MR,288.1,26.2,Peat,0
-13.39888889,19.7975,Dra Ehel Hbibe,100,MR,141.51,28.57,Sandy ,0
-14.47138889,19.34666667,lemdenne,20,MR,271.68,12.38,Alluvial,0
-14.47333333,19.345,lemdenne,10,MR,254.69,33.48,Unknown,0
-13.69027778,20.04083333,Ouest El egda,8,MR,281.43,22.32,Laterite,0
-13.67638889,19.81083333,El awge,10,MR,333.93,26.84,Loam,0
-13.39083333,19.79916667,Elbe Ehil  Ehbibe Te,80,MR,138.65,40.29,Peat,0
-13.66055556,19.81916667,El awge,10,MR,19.22,23.54,Laterite,0
-13.29555556,19.95972222,ligleibe,20,MR,297.6,36.46,Loam,0
-13.15166667,20.07277778,Greirit Chatou,30,MR,268.38,25.36,Loam,0
-15.96527778,17.68416667,Hseyatt ehel dih,5,MR,270.68,14.82,Alluvial,0
-13.30111111,19.95027778,ligleibe,20,MR,397.52,25.95,Clay ,0
-15.98055556,17.71388889,Pk 42 de Nouakchott,5,MR,298.85,36.36,Unknown,0
-12.7075,19.87138889,nord daaje,20,MR,266.02,24.55,Sandy ,0
-12.7275,19.86222222,daaje,10,MR,207.79,21.78,Clay ,0
-13.09388889,20.00805556,Oud Dhal El Maaradh,100,MR,64.21,21.34,Peat,0
-14.61333333,19.41027778,LEKHLige,50,MR,380.51,30.34,Loam,0
-13.38972222,19.81083333,Akravit Tenemrouret,100,MR,175.57,19.87,Loam,0
-13.66666667,19.81027778,El awge,10,MR,153.45,8.72,Peat,0
-13.39333333,19.65944444,Graret Loudheine,100,MR,144.81,9.88,Loam,0
-13.67,19.80861111,El awge,50,MR,244.4,21.7,Loam,0
-13.64916667,19.81916667,El awge,10,MR,362.77,9.54,Alluvial,0
-13.35694444,19.61722222,Graret El Abeth,100,MR,108.02,13.72,Loam,0
-13.34638889,19.6075,Habitations Lemsaidi,100,MR,269.89,14.35,Sandy ,0
-12.89083333,19.92361111,timinit,20,MR,84.6,9.52,Loam,0
-13.295,19.60972222,Mevlek Lemsaidi,100,MR,227.23,16.27,Loam,0
-15.97444444,17.67916667,Pk 47 Sigue,10,MR,26.08,29.85,Sandy ,1
-13.67888889,19.805,El awge,5,MR,291.81,31.51,Peat,0
-13.12888889,20.01111111,twarga,20,MR,334.49,22.03,Peat,0
-13.13527778,20.01611111,Wdeye O Med /Twerg,50,MR,165.02,38.44,Sandy ,0
-13.11638889,19.04583333,tidemeline,40,MR,324.57,6.35,Unknown,0
-13.14194444,19.05027778,tidelemine,10,MR,130.15,10.23,Clay ,0
-15.98638889,17.70083333,Pk42 de Nouakchott,4,MR,192.05,11.62,Laterite,0
-13.12805556,19.05166667,tidilemine,10,MR,230.66,15.75,Clay ,0
-13.12166667,19.05333333,tidemeline,20,MR,103.3,29.67,Clay ,0
-12.39027778,19.41,Adrar,50,MR,270.78,36.22,Clay ,0
-13.08444444,19.02305556,lihneikate,20,MR,38.64,11.81,Alluvial,0
-13.09972222,20.00027778,Ouad Ehl Aheimed,10,MR,30.21,8.62,Laterite,0
-13.24722222,19.54138889,Graret Tenedayit Lem,200,MR,142.2,22.93,Clay ,0
-12.38722222,19.4125,Adrar,50,MR,172.81,38.46,Clay ,0
-13.10805556,19.04083333,tidimeline,10,MR,143.09,8.66,Peat,0
-13.1075,19.08722222,lekreidatte,30,MR,372.55,40.27,Peat,0
-13.29527778,19.57444444,Lemsaidi,80,MR,83.31,30.24,Peat,1
-15.88916667,17.66666667,Awoinatt,20,MR,293.99,7.53,Laterite,0
-13.66805556,19.81111111,El awge,5,MR,140.78,8.35,Peat,0
-13.0925,19.06444444,dalite likvil,30,MR,115.42,10.64,Alluvial,0
-13.34083333,19.60166667,Graret El abeth,100,MR,127.61,6.67,Clay ,0
-13.08722222,19.02527778,lihneikate,30,MR,233.4,20.61,Alluvial,0
-13.11,19.07527778,wade ejifa,30,MR,337.39,22.26,Clay ,0
-13.10722222,19.06194444,rag tidemeline,10,MR,372,21.72,Unknown,0
-13.10777778,19.04,tidimeline,20,MR,102.27,8.61,Unknown,0
-13.19083333,19.98222222,environ elgara,30,MR,353.46,8.38,Alluvial,0
-13.16194444,19.9575,elgara ezarga,20,MR,318.3,39.14,Laterite,0
-13.39833333,19.79361111,Dra Ehil Hbile,50,MR,95.89,40.08,Peat,1
-13.16861111,19.9125,elgara ezarga,40,MR,217.75,22.05,Laterite,0
-13.145,20.06305556,Tounguad,60,MR,251.05,26.07,Laterite,0
-13.37972222,20.13555556,loubeitine,1,MR,94.71,17.1,Unknown,0
-13.38194444,20.14083333,loubeitine,1,MR,386.12,32.84,Alluvial,0
-15.82416667,17.88611111,LEMREIGHATT-Ouad Nag,20,MR,85.33,39.41,Laterite,1
-13.09388889,20.00194444,Ouad Ehl Aheimed,10,MR,64.23,39.68,Clay ,0
-15.79972222,17.8675,TELIMASS-Ouad Naga,50,MR,149.5,23.85,Sandy ,0
-15.7875,17.84888889,SERTIF-EL ARYE,40,MR,137.86,22.04,Sandy ,0
-13.37888889,20.14194444,loubeitine,20,MR,84.72,30.6,Laterite,1
-12.8725,19.725,elmewsa,10,MR,125.82,14.11,Peat,0
-13.10027778,20.00694444,ouad Ehl Aheimed,5,MR,356.9,36.65,Unknown,0
-13.38,19.80583333,Dra Ehil Hbibe,200,MR,158.34,21.25,Clay ,0
-13.69833333,20.00166667,El egda,10,MR,189.86,29.13,Peat,0
-13.1675,19.81527778,medesen,50,MR,92.38,40.24,Loam,1
-13.69833333,20.00166667,El egda,80,MR,75.44,39.24,Loam,1
-13.16194444,19.82111111,wedesene ehil sidi m,20,MR,97.17,38.05,Loam,1
-13.12777778,19.925,injbidherte,60,MR,336.1,22.68,Alluvial,0
-13.14222222,19.92194444,oudeiye name,50,MR,70.28,39.61,Peat,1
-13.37916667,19.82888889,Akravit Tenemrouret,100,MR,120.58,10.35,Peat,0
-13.21361111,19.89611111,oudeiye name,20,MR,48.76,16.15,Unknown,0
-13.22277778,19.89333333,oudeiye ename,50,MR,53.94,22.65,Unknown,0
-13.26972222,19.88305556,greiratte egagua,30,MR,250.94,10.66,Unknown,0
-13.26305556,19.87222222,egueil,40,MR,223.57,34.89,Loam,0
-13.39361111,19.81833333,Akravit  Tenemrourit,80,MR,334.66,21.84,Peat,0
-13.3775,19.83305556,AkravitDra Ehil Ahme,200,MR,214.18,5.76,Peat,0
-13.16194444,20.03805556,Sivtouga,100,MR,97.77,38.89,Sandy ,1
-13.43416667,19.78305556,Chelkhit Nague,200,MR,257.44,21.41,Laterite,0
-13.11111111,19.935,sivtouerga,100,MR,13.26,8.57,Peat,0
-13.15055556,20.02055556,w-touerga,70,MR,391.95,36.85,Peat,0
-15.95861111,17.66972222,Hseyatt ehel Dih,10,MR,6.14,17.42,Peat,0
-13.29944444,19.93416667,rague,20,MR,164.03,34.84,Alluvial,0
-13.30722222,19.90972222,akreikra elbeidha,50,MR,63.82,30.11,Sandy ,1
-13.14333333,20.06361111,Tounguad,30,MR,365.49,8.89,Peat,0
-13.30333333,19.91055556,agmoujeite,30,MR,342.68,36.27,Peat,0
-16.01277778,17.58111111,Pk65 de Nouakchott,10,MR,261.11,40.59,Peat,0
-13.29611111,19.94472222,rague,20,MR,309.54,38.6,Alluvial,0
-13.24388889,19.54361111,tenedayette,6,MR,225.27,12.16,Laterite,0
49.1775,16.16,wadi alkhon 1,100,YE,227.55,14.69,Unknown,0
49.21222222,16.13888889,wadi alkhon 2,100,YE,347.34,12.23,Peat,0
49.21111111,16.1375,wadi alkhon3,90,YE,293.54,28.53,Loam,0
49.2125,16.14138889,wadi alkhon,100,YE,114.53,28.66,Unknown,0
-12.86444444,19.715,elmewsa,50,MR,207.55,34.07,Clay ,0
-12.86305556,19.72,elmewsa,20,MR,281.17,25.65,Unknown,0
44.82944444,13.12777778,mansorah,150,YE,339.86,20.67,Sandy ,0
44.81388889,13.15305556,awad ali,200,YE,368.71,29.69,Unknown,0
44.8275,13.14916667,alsordah,300,YE,259.02,25.18,Loam,0
44.82916667,13.1325,sordah,250,YE,21.02,21.88,Laterite,0
44.85833333,12.96944444,otaeri,200,YE,58.71,20.61,Sandy ,0
36.835,5.361111111,Cityemba,39,ET,395.17,25.7,Alluvial,0
36.18527778,4.668888889,Lokoro,50,ET,186.37,6.58,Laterite,0
37.13333333,0.583333333,Lenguruma,100,KE,99.52,40.17,Peat,1
37.2,0.65,Lenguruma,1214,KE,164.43,30.45,Unknown,0
37.78333333,1.583333333,Laisamis.,100,KE,388.91,10.58,Laterite,0
37.11666667,0.7,Longopito,100,KE,351.2,17.19,Clay ,0
44.75583333,13.08361111,wadi abreen,100,YE,171.76,16.71,Alluvial,0
44.76166667,13.05916667,wadi abreen1,200,YE,104.61,19.61,Clay ,0
37.16666667,0.616666667,Lenguruma,100,KE,317.94,11.57,Unknown,0
36.86666667,0.4,Milima Tatu,100,KE,69.33,29.42,Peat,1
37.16666667,0.616666667,Lenguruma,100,KE,154.24,6.33,Laterite,0
71.74833333,31.18138889,Punjab,20,PA,394.48,17.03,Unknown,0
36.91666667,5.25,Gisma,215,ET,35.81,8.57,Laterite,0
41.28333333,9.766666667,Ayidora2,850,ET,152.67,23.33,Unknown,0
41.35,9.866666667,Ayidora3,400,ET,205.27,37.44,Peat,0
41.31666667,9.666666667,Moleiy,700,ET,123.4,8.09,Laterite,0
41.28333333,9.933333333,Aydora.,650,ET,366.14,17.82,Unknown,0
37.01666667,5.3,Enchete,215,ET,89.26,5.22,Laterite,0
37.1,5.316666667,Tebla Kcale,23,ET,166.34,29.99,Unknown,0
36.78333333,5.316666667,Shala,1850,ET,272.54,21.61,Clay ,0
36.91666667,5.433333333,Luka,230,ET,185.74,29.63,Laterite,0
36.91666667,5.616666667,Gongode,285,ET,304.93,35.87,Loam,0
41.31666667,9.983333333,Asbuli.,880,ET,68.63,10,Loam,0
41.33333333,9.983333333,Kayloweyn.,500,ET,263.68,27.98,Alluvial,0
41.33333333,9.8,Aydora.,800,ET,66.95,12.83,Peat,0
36.93333333,5.75,Ajo,250,ET,335.68,10.88,Loam,0
36.11666667,4.733333333,Nayikaya,48,ET,227.92,15.58,Laterite,0
36.03333333,4.733333333,Delegnmor,46,ET,18.03,17.89,Sandy ,0
36.03333333,4.7,Lokero,32,ET,71.4,5.91,Peat,0
36.04805556,4.701111111,Doshe,26,ET,337.94,14.57,Peat,0
36.05,4.733333333,Torongole,24,ET,383.79,19.39,Sandy ,0
36.78333333,5.3,Ollo,63,ET,356.78,12.95,Alluvial,0
36.73333333,5.383333333,Gone,20,ET,307.9,17.91,Sandy ,0
36.71666667,5.383333333,Ansonda,75,ET,135.9,7.63,Laterite,0
70.90666667,32.60888889,Khyber Pakhtunkhwa,315,PA,25.6,12.44,Peat,0
71.75638889,31.18305556,Punjab,100,PA,89.4,19.84,Peat,0
71.75444444,31.18361111,Punjab,100,PA,59.3,11.82,Laterite,0
71.73972222,31.18444444,Punjab,40,PA,294.58,13.73,Alluvial,0
37.1,5.15,Kllo,710,ET,80.71,21.01,Loam,0
41.28333333,9.933333333,Asbuli.,800,ET,216.68,30.8,Alluvial,0
41.28333333,9.9,Asbuli 2,400,ET,279.21,9.54,Peat,0
41.38333333,9.683333333,Asnaba 1,800,ET,320.89,32.05,Unknown,0
41.36666667,9.666666667,Asnaba 2,800,ET,397.37,12.42,Laterite,0
44.38333333,31.41666667,Al Najaf,145,IQ,93.38,29.87,Peat,1
44.88333333,31.96666667,Al Diwaniyah,60,IQ,383.24,16.57,Sandy ,0
45.18333333,31.43333333,Al muthanna.,70,IQ,157.74,12.39,Loam,0
42.61444444,9.816111111,Somali Region,25,ET,271.11,17.98,Peat,0
36.21666667,5.616666667,Gongode,120,ET,38.07,13.19,Peat,0
36.86666667,5.583333333,Damiker,108,ET,212.55,28.3,Unknown,0
36.93333333,5.683333333,Erbo.,72,ET,136.63,17.78,Sandy ,0
36.88333333,5.733333333,Ajo,96,ET,16.18,35.66,Peat,0
36.81666667,5.6,Geragedo,91,ET,150.77,19.77,Clay ,0
36.83333333,5.533333333,Citiemba,220,ET,62.91,19.16,Sandy ,0
71.76305556,31.16222222,Punjab,25,PA,13.11,33.58,Alluvial,0
71.9375,31.27083333,Punjab,30,PA,146.89,9.29,Alluvial,0
71.76,31.16222222,Punjab,50,PA,24.32,16.94,Clay ,0
71.76027778,31.17527778,Punjab,20,PA,357.66,6.93,Peat,0
71.75333333,31.17944444,Punjab,39,PA,376.74,36.5,Unknown,0
71.75333333,31.17972222,Punjab,20,PA,93.54,16.39,Loam,0
71.93944444,31.52277778,Punjab,25,PA,46.67,23.07,Clay ,0
69.39083333,28.38444444,Sindh,400,PA,82.17,25.37,Clay ,0
71.75361111,31.17944444,Punjab,100,PA,376.12,15.7,Peat,0
71.74861111,31.18055556,Punjab,15,PA,331.19,23.57,Clay ,0
48.68583333,27.58416667,E. Nairia,100,SA,377.25,5.71,Laterite,0
49.63166667,26.51166667,Al damam,500,SA,377.18,30.64,Alluvial,0
49.63166667,26.51166667,Al damam,600,SA,102.38,7.11,Sandy ,0
49.63166667,26.51166667,Al damam,500,SA,53.92,17.87,Loam,0
49.69194444,26.48416667,Dammam AIRPORT,400,SA,295.95,5.05,Alluvial,0
41.14861111,28.495,alnfod,800,SA,58.7,24.84,Loam,0
48.63722222,26.71166667,Al Aqir,300,SA,158.62,27.88,Clay ,0
71.73972222,31.18444444,Punjab,50,PA,316.78,36.48,Peat,0
71.74,31.18472222,Punjab,70,PA,29.59,20.03,Peat,0
37.23083333,1.958611111,Marsabit,50,KE,282.98,14.99,Unknown,0
37.54916667,0.452777778,Isiolo County,15000,KE,381.03,39.37,Loam,0
49.63388889,26.51888889,Al damam,600,SA,341.36,36.79,Unknown,0
49.69944444,26.49222222,Al damam,500,SA,363.81,13.51,Clay ,0
48.6625,26.70055556,Al Aqir,500,SA,226.95,5.31,Peat,0
46.86694444,22.09638889,SOADAN,400,SA,111.65,11.49,Alluvial,0
46.93611111,22.12305556,ALSAH,300,SA,375.44,29.08,Laterite,0
49.71055556,26.49805556,Al damam,600,SA,73.08,11.56,Sandy ,0
49.71194444,26.50888889,Al damam,600,SA,106.98,20.41,Sandy ,0
48.69472222,27.57944444,E. Nairia,400,SA,162.33,15.86,Peat,0
41.67277778,28.63194444,alnfod,700,SA,350.04,5.04,Unknown,0
41.65666667,28.59166667,alnfod,50,SA,389.48,23.31,Clay ,0
41.65416667,28.58416667,alnfod,20,SA,162.92,14.32,Laterite,0
41.66611111,28.56777778,alnfod,30,SA,298.73,36.32,Unknown,0
41.67694444,28.51361111,alnfod,40,SA,216.99,21.02,Unknown,0
48.75888889,26.92277778,Al Hina,200,SA,289.99,32.04,Clay ,0
49.94166667,26.41,aldmam,500,SA,55.4,24.96,Unknown,0
49.87833333,26.36333333,aldmam airport,500,SA,204.35,33.38,Alluvial,0
47.2225,27.47555556,ALQARIA ALOLIA,300,SA,376.17,28.42,Peat,0
49.23972222,26.96111111,ALJUBAL,500,SA,190.51,37.22,Sandy ,0
47.70888889,27.59527778,ALQARIA ALOLIA,400,SA,130.38,31.83,Peat,0
49.44166667,26.87611111,W ALDMAM,600,SA,287.92,26,Sandy ,0
49.85888889,26.19166667,S ALDMAM,400,SA,116.15,10.04,Unknown,0
49.59527778,26.66111111,ALKATEF,500,SA,279.6,16.27,Sandy ,0
49.375,24.70888889,FADEALAH,300,SA,297.81,20.79,Unknown,0
48.6425,27.29527778,MLEAGAH,300,SA,14.79,18.48,Unknown,0
49.52333333,26.02222222,BQEAQ,400,SA,215.68,12.01,Loam,0
48.89583333,26.97861111,Hanidh,500,SA,226.12,38.07,Sandy ,0
48.83416667,26.71388889,Thaj,300,SA,147.82,8.74,Clay ,0
48.28777778,26.78694444,galayab,50,SA,320.93,34.65,Clay ,0
49.83666667,26.29861111,al damam,1000,SA,206.46,34.46,Peat,0
42.08027778,6.1325,Somali Region,500,ET,282.79,27.61,Sandy ,0
37.1,5.15,Wayu wondo,181,ET,221.23,8.3,Peat,0
41.7,9.716666667,Kaliso,300,ET,182.26,39.44,Loam,0
41.36666667,9.633333333,Aseaba,800,ET,390.21,18.5,Peat,0
42.68333333,10.41666667,Biyo Gurgur,700,ET,62.1,29.83,Alluvial,1
69.40944444,28.45555556,Sindh,13,PA,36.26,18.76,Clay ,0
42.62916667,10.35527778,Somali Region,2,ET,302.51,23.16,Alluvial,0
42.62916667,10.35583333,Somali Region,2,ET,216.07,10.89,Sandy ,0
42.68333333,10.38333333,Biokobebe,30,ET,339.12,40.48,Loam,0
42.63333333,10.31666667,Biyo Gurgur,50,ET,12.31,33.77,Alluvial,0
42.61666667,10.6,Dayer,40,ET,294.28,10.91,Alluvial,0
42.66666667,10.58333333,Aligedi,25,ET,298.24,39.73,Sandy ,0
41.16666667,9.9,Hasibuly,210,ET,10.76,6.85,Peat,0
42.61666667,9.8,Dembel zu,230,ET,171.64,20.39,Sandy ,0
41.36666667,9.583333333,Asa eba,700,ET,330.26,31.13,Clay ,0
38.71666667,4.55,Web,60,ET,147.2,13.74,Laterite,0
42.26666667,9.933333333,Gasari,35,ET,306.41,15.84,Clay ,0
42.35,9.933333333,Kalebed,50,ET,246.29,20.03,Loam,0
42.38333333,9.916666667,Hadul,90,ET,103.86,35.09,Peat,1
42.61666667,9.833333333,Golole,150,ET,149.62,37.94,Alluvial,0
37.05,5.116666667,Wondo wa,222,ET,270.5,28.65,Laterite,0
71.76,31.16111111,Punjab,50,PA,117.39,16.64,Laterite,0
71.76,31.17527778,Punjab,50,PA,160.26,13.74,Peat,0
69.88722222,28.71666667,Punjab,250,PA,395.52,36.93,Loam,0
69.87222222,28.86861111,Punjab,100,PA,323.57,9.98,Laterite,0
71.74166667,31.18305556,Punjab,30,PA,67.32,29.12,Peat,1
73.32694444,30.95305556,Punjab,25,PA,223.7,16.92,Loam,0
71.90305556,31.87722222,Punjab,268,PA,99.93,8.31,Peat,0
36.76555556,5.313611111,Benatsemay shala 5,100,ET,234.53,23.35,Unknown,0
37.06666667,5.316666667,Masoya,20,ET,264.73,38.99,Peat,0
37.05,5.25,Gelgele,60,ET,290.26,19.83,Sandy ,0
36.81666667,5.433333333,Luka,500,ET,86.57,8.32,Laterite,0
36.78333333,5.366666667,Aymele.,1000,ET,338.12,37.05,Sandy ,0
35.29138889,2.366111111,West Pokot,50,KE,137.86,22.69,Clay ,0
36.71666667,2.75,Loiyangalani Sprayed,100,KE,163.89,9.79,Clay ,0
39.18333333,-0.116666667,Tana river area Spra,100,KE,33.49,27.89,Loam,1
37.18333333,-0.1,Nyeri area Sprayed,100,KE,86.63,13.52,Laterite,0
37.06666667,5.316666667,Masoya,34.5,ET,263.5,16.34,Loam,0
37.11666667,5.316666667,Madrina,5,ET,377.48,5.84,Alluvial,0
36.88333333,5.183333333,Bola,54,ET,131.78,9.29,Loam,0
36.88333333,5.15,Bura,113,ET,126.97,37.15,Sandy ,1
37.91666667,5.25,Gisma,98,ET,194.81,8.14,Unknown,0
36.75,5.466666667,Olka kibo,70.5,ET,385.02,37.37,Laterite,0
36.71666667,5.466666667,Shala,35,ET,29.99,35.47,Peat,1
36.78333333,5.366666667,Uffi,86,ET,42.81,27.49,Laterite,1
36.81666667,5.366666667,Aymale,113,ET,116.18,8.08,Clay ,0
36.13333333,4.666666667,Doshe,14,ET,381.17,18.32,Alluvial,0
36.95,5.6,Damiker,255,ET,14.55,14.05,Laterite,0
37.06666667,5.316666667,Masoya,20,ET,101.4,26.72,Sandy ,1
37.1,5.2,Tebla,50,ET,252.56,33.94,Laterite,0
36.83333333,5.533333333,Citiemba,65,ET,113.82,34.24,Unknown,1
37.01666667,5.3,Enchete,155,ET,106.26,30.8,Alluvial,1
36.96666667,5.3,Duma,120.5,ET,393.61,40.89,Unknown,0
36.91666667,5.433333333,Luka,299,ET,40.05,8.23,Alluvial,0
36.8,5.483333333,Sitimba,500,ET,382.3,18.21,Alluvial,0
36.83333333,5.533333333,Citi emba,72,ET,11.07,15.34,Unknown,0
36.88333333,5.183333333,Bola,48,ET,222.73,27.29,Peat,0
36.78333333,5.3,Ollo,54,ET,199.3,30.14,Clay ,0
36.88333333,5.1,Bura,109,ET,272.5,17.12,Peat,0
37.75,5.466666667,Gisma,63,ET,144.44,6.1,Clay ,0
36.71666667,5.466666667,Shaba,47,ET,35.3,29.24,Loam,1
36.71666667,5.316666667,Ansonda,88,ET,186.34,27.42,Alluvial,0
36.78333333,5.316666667,Shala 1,85,ET,76.44,21.5,Loam,0
36.7,5.35,Uffi,81,ET,378.2,7.8,Unknown,0
36.73333333,5.383333333,Gone,38,ET,53.7,30.91,Alluvial,1
36.69611111,1.096666667,Samburu,1,KE,252.46,5.78,Loam,0
37.83166667,0.001111111,Gachua,5,KE,380.82,32.52,Laterite,0
48.68805556,26.71361111,Al Aqir,500,SA,330.42,14.04,Sandy ,0
46.73611111,22.37416667,OSEELAIE,500,SA,26.11,16.55,Laterite,0
49.86722222,26.30888889,Al damam,1000,SA,146.22,11.32,Laterite,0
41.40777778,28.29277778,alrdafh,80,SA,137.61,22.5,Sandy ,0
41.40777778,28.29277778,alrdifh,1,SA,270.71,12.66,Peat,0
41.40027778,28.30916667,qriet alrdeifh,40,SA,344.74,40.85,Peat,0
49.79111111,26.2525,Al damam,200,SA,93.77,10.38,Loam,0
46.81416667,22.20805556,AL  SAEH,400,SA,398.57,23.57,Unknown,0
49.79472222,26.25194444,Al damam,200,SA,70.6,7.71,Sandy ,0
48.75611111,27.59333333,E. Naeria,500,SA,331.58,24.62,Alluvial,0
49.8125,26.26722222,west aldahran,200,SA,375.16,20.68,Loam,0
49.90888889,26.30888889,tareq alriyadh,300,SA,114.18,33.32,Laterite,0
49.95138889,26.3475,alfursan,200,SA,245.11,18.78,Loam,0
49.92555556,26.33972222,alhadabah,300,SA,182.1,17.73,Laterite,0
46.48222222,22.58305556,AL  GHAIL,200,SA,360.01,12.73,Unknown,0
49.78638889,26.23416667,Al damam,200,SA,150.13,23.35,Unknown,0
49.78472222,26.23777778,Al damam,500,SA,140.45,17.67,Laterite,0
48.68083333,26.69472222,Al Aqir,500,SA,131.63,18.59,Sandy ,0
48.67777778,26.74194444,Al Aqir,200,SA,221.28,20.49,Sandy ,0
41.39277778,28.28777778,qareit alrdeifh,2,SA,82.1,13.09,Sandy ,0
46.48777778,22.05194444,AL BADIE,300,SA,251.15,36.48,Peat,0
49.78722222,26.23916667,Al damam,400,SA,296.61,11.83,Clay ,0
49.78305556,26.235,Al damam,400,SA,93.43,10.57,Alluvial,0
48.68583333,26.755,Al Aqir,200,SA,242.04,33.73,Alluvial,0
41.36277778,28.29027778,qareit alradeifh,20,SA,163.82,28.94,Unknown,0
41.38083333,28.29027778,qareit alradeifh,10,SA,248.41,11.9,Clay ,0
48.67638889,26.62194444,Hanidh,200,SA,319.78,6.34,Clay ,0
49.80055556,26.25888889,Al damam,1000,SA,44.98,11.45,Peat,0
36.84805556,3.435,Marsabit,10,KE,258.19,9.64,Laterite,0
37.06805556,3.321388889,Marsabit,20,KE,297.03,5.52,Alluvial,0
37.56666667,5.266666667,Gisma 1,300,ET,176.58,37.68,Sandy ,0
37.66666667,5.233333333,Gisma 2,350,ET,99.79,34.13,Laterite,1
37.23333333,5.15,Blla,300,ET,325.31,5.19,Alluvial,0
37.35,5.3,Shala 2,1500,ET,210.92,11.62,Laterite,0
36.83333333,5.483333333,Shala 4,750,ET,305.7,40.75,Sandy ,0
37.2,5.183333333,Gisma 3,600,ET,361.1,15.46,Peat,0
37.06666667,5.166666667,Wayu wondo,70,ET,256.08,6.07,Alluvial,0
36.81666667,5.483333333,Sitimba,1200,ET,14.84,26.39,Alluvial,0
49.76388889,26.4525,Al damam,600,SA,25.41,11.21,Alluvial,0
49.75472222,26.48555556,Al damam,800,SA,304.55,11.35,Alluvial,0
48.49527778,27.04527778,GENWAH,300,SA,41.27,39.29,Clay ,0
49.37555556,26.11194444,SLASEL,400,SA,292.29,18.7,Laterite,0
48.44111111,27.46194444,ALNEAERIAH,200,SA,183.1,6.78,Unknown,0
49.64138889,26.50888889,ALDAMAM,300,SA,170.66,37.59,Laterite,0
48.55583333,26.65861111,MKATI,400,SA,282.21,19.34,Laterite,0
49.43916667,26.09527778,SLASEL,400,SA,195.01,27.61,Loam,0
49.00888889,25.88916667,OM ALARAD,200,SA,244.4,13.88,Laterite,0
48.60277778,27.16194444,ATEG,400,SA,316.45,37.55,Alluvial,0
48.34222222,27.00888889,ALSRAR,300,SA,384.33,39.33,Loam,0
38.045,-0.154444444,Balambala 3,60,KE,224.44,9.39,Sandy ,0
39.88333333,-0.7,Kamuthe Sprayed,100,KE,295.46,25.5,Unknown,0
48.68916667,26.49527778,SHFIAH,400,SA,221.76,5.01,Alluvial,0
48.49666667,27.32861111,MLEAGAH,300,SA,43.69,38.39,Unknown,1
49.715,26.48555556,Al damam,300,SA,204.01,27.39,Sandy ,0
46.93611111,22.12305556,AS   SEEH,900,SA,34.57,40.07,Peat,1
49.70972222,26.485,Al damam,300,SA,179.18,27.89,Peat,0
49.70805556,26.495,Al damam,500,SA,184,28.07,Loam,0
49.70194444,26.5075,Al damam,400,SA,264.15,6.65,Unknown,0
48.84222222,25.97555556,AREAARAH,300,SA,195.5,26.99,Laterite,0
49.39527778,26.19222222,N SALASEL,400,SA,53.23,13.91,Sandy ,0
49.42555556,25.90888889,AEN DAR,300,SA,64.05,13.48,Alluvial,0
49.64527778,26.46194444,ALDMAM,300,SA,30.81,11.56,Alluvial,0
48.36194444,26.95888889,ALSRAR,300,SA,355.64,32.59,Loam,0
48.84222222,26.02555556,OM RABEEAHA,300,SA,50.71,28.74,Sandy ,1
49.37555556,25.99527778,OLD AEN DAR,500,SA,200.11,28.8,Laterite,0
49.14222222,26.04527778,OM ALARAD,300,SA,8.49,30.63,Laterite,0
49.16194444,26.77555556,ALHNAH,300,SA,122.35,36.26,Sandy ,1
49.53666667,26.49527778,ALDMAM,300,SA,192.31,15.24,Clay ,0
48.70638889,26.45888889,HANED,300,SA,87.2,39.83,Unknown,1
48.49527778,27.27888889,MLEAGAH,400,SA,358.27,21.02,Clay ,0
49.45888889,26.08138889,SALASEL,300,SA,16.67,8.98,Sandy ,0
49.02555556,25.92861111,OM ALARAD,400,SA,182.21,11.03,Peat,0
48.70888889,26.81194444,THAG,200,SA,394.15,24.77,Laterite,0
49.5825,26.84527778,west aldmam,200,SA,229.35,40.92,Clay ,0
48.83916667,25.99527778,areaarah,400,SA,37.14,31.47,Laterite,1
48.49527778,26.66083333,haned,200,SA,47.44,27.31,Clay ,0
49.14222222,26.75888889,alhnah,200,SA,397.5,11.59,Clay ,0
49.03666667,25.90888889,om alarad,400,SA,334.76,7.35,Unknown,0
49.29777778,27.07527778,aljubel,300,SA,261.72,38.54,Laterite,0
48.44527778,26.99222222,alzokben,200,SA,228.79,6.32,Sandy ,0
49.29777778,27.0725,aldmam,300,SA,394.7,12.85,Peat,0
49.76138889,26.46861111,Aldamam,300,SA,97.19,11.64,Unknown,0
55.81388889,23.91472222,Al Qabil,200,OM,390.35,28,Sandy ,0
66.01138889,29.5425,Balochistan,8,PA,383.08,24.26,Clay ,0
36.82888889,2.489444444,Serima,5,KE,387.8,27.92,Unknown,0
37.58138889,0.443333333,Meru,3,KE,42.7,28.95,Clay ,0
53.36277778,27.24861111,Aliabad,400,IR,115.64,19.91,Peat,0
54.51277778,26.76722222,soro,40,IR,245.58,40.7,Clay ,0
54.495,26.80527778,Ermak 3,50,IR,191.84,13.81,Sandy ,0
51.58611111,28.70777778,Gardane gachi,600,IR,324.49,5.25,Laterite,0
57.24555556,26.14027778,Hormozgan Province,50,IR,176.56,20.13,Sandy ,0
54.46055556,26.82444444,Ermak 1,40,IR,386.03,20.13,Loam,0
72.01194444,31.56055556,Punjab,324,PA,124.68,33.33,Peat,1
71.74333333,31.17944444,Punjab,20,PA,389.74,29.92,Loam,0
71.75,31.17527778,Punjab,10,PA,331.64,7.66,Clay ,0
71.75138889,31.17444444,Punjab,25,PA,299.97,9.06,Alluvial,0
71.91027778,31.52833333,Punjab,15,PA,151.74,14.84,Loam,0
71.75138889,31.17388889,Punjab,25,PA,267.78,22.49,Sandy ,0
54.49138889,26.79888889,Ermak 2,40,IR,56.08,40.03,Peat,1
54.45277778,26.82666667,Ermak 3,40,IR,354.86,38.41,Unknown,0
57.28277778,26.33833333,Hormozgan Province,40,IR,336.59,11.28,Peat,0
53.3675,27.27333333,Aliabad,500,IR,233.36,40.06,Clay ,0
52.78444444,27.56805556,Tang shool,500,IR,374.97,8.04,Unknown,0
54.62527778,27.40638889,Dehong,200,IR,39.66,30.84,Clay ,0
54.78888889,27.22944444,Dehtal,250,IR,29.3,24.9,Peat,0
54.51805556,26.79055556,soro,40,IR,310.25,9.62,Peat,0
54.18194444,26.84166667,Bshmani,40,IR,378.12,5.68,Unknown,0
54.0475,26.85694444,Rostami,40,IR,167.4,10.22,Loam,0
54.00888889,26.85472222,Lelemi 1,40,IR,26.69,23.43,Loam,0
54.62194444,27.40055556,Dehang,400,IR,201.38,23.98,Sandy ,0
54.33888889,26.77,Baverdan,40,IR,121.49,39.17,Loam,1
